<cdidata>
  <cdi type="zip">
    <location name="85338">
      <cdi>2.2372</cdi>
      <nresp>1</nresp>
      <dist>346</dist>
      <lat>33.3770726862</lat>
      <lon>-112.405812769</lon>
      <name>Goodyear</name>
      <state>AZ</state>
    </location>
    <location name="92201">
      <cdi>2</cdi>
      <nresp>1</nresp>
      <dist>16</dist>
      <lat>33.707623363</lat>
      <lon>-116.234525355</lon>
      <name>Indio</name>
      <state>CA</state>
    </location>
    <location name="92203">
      <cdi>2.5366</cdi>
      <nresp>9</nresp>
      <dist>15</dist>
      <lat>33.7517583205</lat>
      <lon>-116.241723548</lon>
      <name>Indio</name>
      <state>CA</state>
    </location>
    <location name="92211">
      <cdi>2.1136</cdi>
      <nresp>5</nresp>
      <dist>22</dist>
      <lat>33.7642960411</lat>
      <lon>-116.330157044</lon>
      <name>Palm Desert</name>
      <state>CA</state>
    </location>
    <location name="92234">
      <cdi>1</cdi>
      <nresp>1</nresp>
      <dist>34</dist>
      <lat>33.8157080121</lat>
      <lon>-116.466479106</lon>
      <name>Cathedral City</name>
      <state>CA</state>
    </location>
    <location name="92253">
      <cdi>2.6912</cdi>
      <nresp>1</nresp>
      <dist>23</dist>
      <lat>33.654505594</lat>
      <lon>-116.281141058</lon>
      <name>La Quinta</name>
      <state>CA</state>
    </location>
    <location name="92260">
      <cdi>2.7834</cdi>
      <nresp>5</nresp>
      <dist>30</dist>
      <lat>33.6890242816</lat>
      <lon>-116.397060697</lon>
      <name>Palm Desert</name>
      <state>CA</state>
    </location>
    <location name="92806">
      <cdi>2</cdi>
      <nresp>1</nresp>
      <dist>163</dist>
      <lat>33.838352873</lat>
      <lon>-117.870242707</lon>
      <name>Anaheim</name>
      <state>CA</state>
    </location>
  </cdi>
</cdidata>
