<cdidata>
  <cdi type="zip">
    <location name="90745">
      <cdi>1</cdi>
      <nresp>1</nresp>
      <dist>213</dist>
      <lat>33.8225753513</lat>
      <lon>-118.262102669</lon>
      <name>Carson</name>
      <state>CA</state>
    </location>
    <location name="91761">
      <cdi>1</cdi>
      <nresp>1</nresp>
      <dist>148</dist>
      <lat>34.0345221452</lat>
      <lon>-117.592677765</lon>
      <name>Ontario</name>
      <state>CA</state>
    </location>
    <location name="92262">
      <cdi>2</cdi>
      <nresp>1</nresp>
      <dist>106</dist>
      <lat>33.8625160663</lat>
      <lon>-116.56832194</lon>
      <name>Palm Springs</name>
      <state>CA</state>
    </location>
    <location name="92356">
      <cdi>3.6156</cdi>
      <nresp>1</nresp>
      <dist>63</dist>
      <lat>34.527054552</lat>
      <lon>-116.879774545</lon>
      <name>Lucerne Valley</name>
      <state>CA</state>
    </location>
    <location name="92365">
      <cdi>2.6912</cdi>
      <nresp>2</nresp>
      <dist>40</dist>
      <lat>34.8638538579</lat>
      <lon>-116.69018585</lon>
      <name>Newberry Springs</name>
      <state>CA</state>
    </location>
    <location name="92395">
      <cdi>2.2372</cdi>
      <nresp>1</nresp>
      <dist>100</dist>
      <lat>34.5029297011</lat>
      <lon>-117.294071923</lon>
      <name>Victorville</name>
      <state>CA</state>
    </location>
    <location name="92692">
      <cdi>2.2372</cdi>
      <nresp>1</nresp>
      <dist>182</dist>
      <lat>33.6099134265</lat>
      <lon>-117.643124217</lon>
      <name>Mission Viejo</name>
      <state>CA</state>
    </location>
    <location name="93308">
      <cdi>2.2372</cdi>
      <nresp>1</nresp>
      <dist>256</dist>
      <lat>35.5539379037</lat>
      <lon>-118.915403274</lon>
      <name>Bakersfield</name>
      <state>CA</state>
    </location>
  </cdi>
</cdidata>
