<cdidata>
  <cdi type="zip">
    <location name="90603">
      <cdi>2</cdi>
      <nresp>5</nresp>
      <dist>8</dist>
      <lat>33.9456933787</lat>
      <lon>-117.991801052</lon>
      <name>Whittier</name>
      <state>CA</state>
    </location>
    <location name="90604">
      <cdi>2</cdi>
      <nresp>9</nresp>
      <dist>9</dist>
      <lat>33.930163994</lat>
      <lon>-118.012801925</lon>
      <name>Whittier</name>
      <state>CA</state>
    </location>
    <location name="90605">
      <cdi>2</cdi>
      <nresp>3</nresp>
      <dist>9</dist>
      <lat>33.9576240338</lat>
      <lon>-118.015382998</lon>
      <name>Whittier</name>
      <state>CA</state>
    </location>
    <location name="90620">
      <cdi>2.2372</cdi>
      <nresp>1</nresp>
      <dist>12</dist>
      <lat>33.8463139296</lat>
      <lon>-118.011490876</lon>
      <name>Buena Park</name>
      <state>CA</state>
    </location>
    <location name="90621">
      <cdi>2.6340</cdi>
      <nresp>3</nresp>
      <dist>9</dist>
      <lat>33.8749461731</lat>
      <lon>-117.993215582</lon>
      <name>Buena Park</name>
      <state>CA</state>
    </location>
    <location name="90623">
      <cdi>2</cdi>
      <nresp>1</nresp>
      <dist>13</dist>
      <lat>33.8504803622</lat>
      <lon>-118.040965967</lon>
      <name>La Palma</name>
      <state>CA</state>
    </location>
    <location name="90631">
      <cdi>2.2486</cdi>
      <nresp>17</nresp>
      <dist>7</dist>
      <lat>33.9418254683</lat>
      <lon>-117.951404302</lon>
      <name>La Habra</name>
      <state>CA</state>
    </location>
    <location name="90638">
      <cdi>2</cdi>
      <nresp>11</nresp>
      <dist>9</dist>
      <lat>33.9025675228</lat>
      <lon>-118.009023689</lon>
      <name>La Mirada</name>
      <state>CA</state>
    </location>
    <location name="90650">
      <cdi>3.0916</cdi>
      <nresp>1</nresp>
      <dist>13</dist>
      <lat>33.9069637577</lat>
      <lon>-118.082817796</lon>
      <name>Norwalk</name>
      <state>CA</state>
    </location>
    <location name="91740">
      <cdi>1</cdi>
      <nresp>1</nresp>
      <dist>24</dist>
      <lat>34.1185404722</lat>
      <lon>-117.853681417</lon>
      <name>Glendora</name>
      <state>CA</state>
    </location>
    <location name="91745">
      <cdi>2</cdi>
      <nresp>2</nresp>
      <dist>11</dist>
      <lat>34.0006116969</lat>
      <lon>-117.975860341</lon>
      <name>Hacienda Heights</name>
      <state>CA</state>
    </location>
    <location name="91746">
      <cdi>1</cdi>
      <nresp>1</nresp>
      <dist>15</dist>
      <lat>34.0441253554</lat>
      <lon>-117.988623488</lon>
      <name>La Puente</name>
      <state>CA</state>
    </location>
    <location name="91748">
      <cdi>2</cdi>
      <nresp>1</nresp>
      <dist>10</dist>
      <lat>33.9763568174</lat>
      <lon>-117.898597307</lon>
      <name>Rowland Heights</name>
      <state>CA</state>
    </location>
    <location name="91761">
      <cdi>1</cdi>
      <nresp>1</nresp>
      <dist>36</dist>
      <lat>34.0345221452</lat>
      <lon>-117.592677765</lon>
      <name>Ontario</name>
      <state>CA</state>
    </location>
    <location name="92078">
      <cdi>1</cdi>
      <nresp>1</nresp>
      <dist>114</dist>
      <lat>33.1199616415</lat>
      <lon>-117.187204133</lon>
      <name>San Marcos</name>
      <state>CA</state>
    </location>
    <location name="92802">
      <cdi>2</cdi>
      <nresp>1</nresp>
      <dist>15</dist>
      <lat>33.8080753934</lat>
      <lon>-117.923431126</lon>
      <name>Anaheim</name>
      <state>CA</state>
    </location>
    <location name="92821">
      <cdi>2.6912</cdi>
      <nresp>1</nresp>
      <dist>9</dist>
      <lat>33.9275580545</lat>
      <lon>-117.884643309</lon>
      <name>Brea</name>
      <state>CA</state>
    </location>
    <location name="92823">
      <cdi>2</cdi>
      <nresp>1</nresp>
      <dist>15</dist>
      <lat>33.9292820159</lat>
      <lon>-117.806798818</lon>
      <name>Brea</name>
      <state>CA</state>
    </location>
    <location name="92831">
      <cdi>2</cdi>
      <nresp>1</nresp>
      <dist>10</dist>
      <lat>33.8793264465</lat>
      <lon>-117.896371762</lon>
      <name>Fullerton</name>
      <state>CA</state>
    </location>
    <location name="92832">
      <cdi>1</cdi>
      <nresp>1</nresp>
      <dist>9</dist>
      <lat>33.868407688</lat>
      <lon>-117.929181199</lon>
      <name>Fullerton</name>
      <state>CA</state>
    </location>
    <location name="92833">
      <cdi>2.0883</cdi>
      <nresp>6</nresp>
      <dist>8</dist>
      <lat>33.8799569546</lat>
      <lon>-117.961070373</lon>
      <name>Fullerton</name>
      <state>CA</state>
    </location>
    <location name="92835">
      <cdi>2.7600</cdi>
      <nresp>11</nresp>
      <dist>8</dist>
      <lat>33.9020736449</lat>
      <lon>-117.915301138</lon>
      <name>Fullerton</name>
      <state>CA</state>
    </location>
    <location name="92886">
      <cdi>3.0916</cdi>
      <nresp>1</nresp>
      <dist>17</dist>
      <lat>33.8966746216</lat>
      <lon>-117.794755653</lon>
      <name>Yorba Linda</name>
      <state>CA</state>
    </location>
  </cdi>
</cdidata>
