<cdidata>
  <cdi type="zip">
    <location name="91320">
      <cdi>2</cdi>
      <nresp>1</nresp>
      <dist>115</dist>
      <lat>34.1416299359</lat>
      <lon>-118.978888954</lon>
      <name>Newbury Park</name>
      <state>CA</state>
    </location>
    <location name="92627">
      <cdi>2</cdi>
      <nresp>1</nresp>
      <dist>225</dist>
      <lat>33.6481914604</lat>
      <lon>-117.920343388</lon>
      <name>Costa Mesa</name>
      <state>CA</state>
    </location>
    <location name="93110">
      <cdi>1</cdi>
      <nresp>1</nresp>
      <dist>38</dist>
      <lat>34.4351723025</lat>
      <lon>-119.768904619</lon>
      <name>Santa Barbara</name>
      <state>CA</state>
    </location>
    <location name="93436">
      <cdi>3.2754</cdi>
      <nresp>1</nresp>
      <dist>28</dist>
      <lat>34.604909261</lat>
      <lon>-120.39336214</lon>
      <name>Lompoc</name>
      <state>CA</state>
    </location>
    <location name="94116">
      <cdi>2</cdi>
      <nresp>1</nresp>
      <dist>424</dist>
      <lat>37.7446010014</lat>
      <lon>-122.48655692</lon>
      <name>San Francisco</name>
      <state>CA</state>
    </location>
    <location name="95030">
      <cdi>2</cdi>
      <nresp>1</nresp>
      <dist>352</dist>
      <lat>37.2248970392</lat>
      <lon>-121.991046295</lon>
      <name>Los Gatos</name>
      <state>CA</state>
    </location>
    <location name="95130">
      <cdi>2</cdi>
      <nresp>1</nresp>
      <dist>357</dist>
      <lat>37.2813311083</lat>
      <lon>-121.977808985</lon>
      <name>San Jose</name>
      <state>CA</state>
    </location>
  </cdi>
</cdidata>
