<cdidata>
  <cdi type="zip">
    <location name="89113">
      <cdi>1</cdi>
      <nresp>1</nresp>
      <dist>205</dist>
      <lat>36.0597377035</lat>
      <lon>-115.261603428</lon>
      <name>Las Vegas</name>
      <state>NV</state>
    </location>
    <location name="91301">
      <cdi>1</cdi>
      <nresp>1</nresp>
      <dist>180</dist>
      <lat>34.1361998919</lat>
      <lon>-118.756948731</lon>
      <name>Agoura Hills</name>
      <state>CA</state>
    </location>
    <location name="92311">
      <cdi>2.4261</cdi>
      <nresp>2</nresp>
      <dist>46</dist>
      <lat>34.8400535</lat>
      <lon>-117.043139595</lon>
      <name>Barstow</name>
      <state>CA</state>
    </location>
    <location name="92344">
      <cdi>2.6912</cdi>
      <nresp>1</nresp>
      <dist>91</dist>
      <lat>34.3912903882</lat>
      <lon>-117.405087704</lon>
      <name>Hesperia</name>
      <state>CA</state>
    </location>
    <location name="92806">
      <cdi>2.0372</cdi>
      <nresp>1</nresp>
      <dist>161</dist>
      <lat>33.838352873</lat>
      <lon>-117.870242707</lon>
      <name>Anaheim</name>
      <state>CA</state>
    </location>
    <location name="93505">
      <cdi>2</cdi>
      <nresp>1</nresp>
      <dist>49</dist>
      <lat>35.182178957</lat>
      <lon>-117.824892483</lon>
      <name>California City</name>
      <state>CA</state>
    </location>
    <location name="93524">
      <cdi>2</cdi>
      <nresp>1</nresp>
      <dist>47</dist>
      <lat>34.9086302661</lat>
      <lon>-117.650569642</lon>
      <name>Edwards</name>
      <state>CA</state>
    </location>
    <location name="93528">
      <cdi>3.0916</cdi>
      <nresp>1</nresp>
      <dist>37</dist>
      <lat>35.287101386</lat>
      <lon>-117.676531005</lon>
      <name>Johannesburg</name>
      <state>CA</state>
    </location>
    <location name="93555">
      <cdi>2.5597</cdi>
      <nresp>10</nresp>
      <dist>55</dist>
      <lat>35.6917311746</lat>
      <lon>-117.449167256</lon>
      <name>Ridgecrest</name>
      <state>CA</state>
    </location>
  </cdi>
</cdidata>
