<cdidata>
  <cdi type="zip">
    <location name="90024">
      <cdi>2</cdi>
      <nresp>1</nresp>
      <dist>165</dist>
      <lat>34.0653110033</lat>
      <lon>-118.435043099</lon>
      <name>Los Angeles</name>
      <state>CA</state>
    </location>
    <location name="90025">
      <cdi>2.4718</cdi>
      <nresp>2</nresp>
      <dist>165</dist>
      <lat>34.0450097269</lat>
      <lon>-118.446640587</lon>
      <name>Los Angeles</name>
      <state>CA</state>
    </location>
    <location name="90405">
      <cdi>2</cdi>
      <nresp>1</nresp>
      <dist>166</dist>
      <lat>34.0114302378</lat>
      <lon>-118.468886402</lon>
      <name>Santa Monica</name>
      <state>CA</state>
    </location>
    <location name="92003">
      <cdi>2.2372</cdi>
      <nresp>1</nresp>
      <dist>54</dist>
      <lat>33.2847089706</lat>
      <lon>-117.199972079</lon>
      <name>Bonsall</name>
      <state>CA</state>
    </location>
    <location name="92082">
      <cdi>2</cdi>
      <nresp>1</nresp>
      <dist>44</dist>
      <lat>33.2538529897</lat>
      <lon>-116.994477053</lon>
      <name>Valley Center</name>
      <state>CA</state>
    </location>
    <location name="92260">
      <cdi>3.0916</cdi>
      <nresp>2</nresp>
      <dist>36</dist>
      <lat>33.6890242816</lat>
      <lon>-116.397060697</lon>
      <name>Palm Desert</name>
      <state>CA</state>
    </location>
    <location name="92503">
      <cdi>2.2372</cdi>
      <nresp>1</nresp>
      <dist>73</dist>
      <lat>33.8897441303</lat>
      <lon>-117.446817121</lon>
      <name>Riverside</name>
      <state>CA</state>
    </location>
    <location name="92536">
      <cdi>2</cdi>
      <nresp>1</nresp>
      <dist>17</dist>
      <lat>33.4826564916</lat>
      <lon>-116.808015903</lon>
      <name>Aguanga</name>
      <state>CA</state>
    </location>
    <location name="92539">
      <cdi>2</cdi>
      <nresp>2</nresp>
      <dist>13</dist>
      <lat>33.5540401854</lat>
      <lon>-116.696854421</lon>
      <name>Anza</name>
      <state>CA</state>
    </location>
    <location name="92544">
      <cdi>2.4868</cdi>
      <nresp>3</nresp>
      <dist>19</dist>
      <lat>33.6443840016</lat>
      <lon>-116.898417469</lon>
      <name>Hemet</name>
      <state>CA</state>
    </location>
    <location name="92548">
      <cdi>3.4498</cdi>
      <nresp>1</nresp>
      <dist>40</dist>
      <lat>33.7605392896</lat>
      <lon>-117.110484076</lon>
      <name>Homeland</name>
      <state>CA</state>
    </location>
    <location name="92549">
      <cdi>3.4498</cdi>
      <nresp>1</nresp>
      <dist>25</dist>
      <lat>33.7836411163</lat>
      <lon>-116.777173608</lon>
      <name>Idyllwild</name>
      <state>CA</state>
    </location>
    <location name="92562">
      <cdi>1</cdi>
      <nresp>1</nresp>
      <dist>49</dist>
      <lat>33.5488264059</lat>
      <lon>-117.267643428</lon>
      <name>Murrieta</name>
      <state>CA</state>
    </location>
    <location name="92592">
      <cdi>3.0916</cdi>
      <nresp>2</nresp>
      <dist>28</dist>
      <lat>33.5072014251</lat>
      <lon>-117.013060513</lon>
      <name>Temecula</name>
      <state>CA</state>
    </location>
  </cdi>
</cdidata>
