<cdidata>
  <cdi type="zip">
    <location name="96704">
      <cdi>2.0372</cdi>
      <nresp>1</nresp>
      <dist>78</dist>
      <lat>19.3358149217</lat>
      <lon>-155.811715146</lon>
      <name>Captain Cook</name>
      <state>HI</state>
    </location>
    <location name="96720">
      <cdi>1</cdi>
      <nresp>1</nresp>
      <dist>83</dist>
      <lat>19.6696050142</lat>
      <lon>-155.307460679</lon>
      <name>Hilo</name>
      <state>HI</state>
    </location>
    <location name="96738">
      <cdi>2</cdi>
      <nresp>2</nresp>
      <dist>46</dist>
      <lat>19.9278736268</lat>
      <lon>-155.809803675</lon>
      <name>Waikoloa</name>
      <state>HI</state>
    </location>
    <location name="96740">
      <cdi>2</cdi>
      <nresp>2</nresp>
      <dist>48</dist>
      <lat>19.7409901702</lat>
      <lon>-155.898323017</lon>
      <name>Kailua Kona</name>
      <state>HI</state>
    </location>
    <location name="96743">
      <cdi>2.5168</cdi>
      <nresp>1</nresp>
      <dist>49</dist>
      <lat>19.931537941</lat>
      <lon>-155.724082526</lon>
      <name>Kamuela</name>
      <state>HI</state>
    </location>
    <location name="96750">
      <cdi>2</cdi>
      <nresp>1</nresp>
      <dist>61</dist>
      <lat>19.5222047477</lat>
      <lon>-155.932870818</lon>
      <name>Kealakekua</name>
      <state>HI</state>
    </location>
    <location name="96755">
      <cdi>2</cdi>
      <nresp>1</nresp>
      <dist>55</dist>
      <lat>20.1678850117</lat>
      <lon>-155.783145136</lon>
      <name>Kapaau</name>
      <state>HI</state>
    </location>
  </cdi>
</cdidata>
