<cdidata>
  <cdi type="zip">
    <location name="96727">
      <cdi>2</cdi>
      <nresp>1</nresp>
      <dist>38</dist>
      <lat>20.0606169257</lat>
      <lon>-155.542666088</lon>
      <name>Honokaa</name>
      <state>HI</state>
    </location>
    <location name="96738">
      <cdi>2.7053</cdi>
      <nresp>6</nresp>
      <dist>34</dist>
      <lat>19.9278736268</lat>
      <lon>-155.809803675</lon>
      <name>Waikoloa</name>
      <state>HI</state>
    </location>
    <location name="96740">
      <cdi>2</cdi>
      <nresp>2</nresp>
      <dist>51</dist>
      <lat>19.7409901702</lat>
      <lon>-155.898323017</lon>
      <name>Kailua Kona</name>
      <state>HI</state>
    </location>
    <location name="96743">
      <cdi>3.2459</cdi>
      <nresp>16</nresp>
      <dist>35</dist>
      <lat>19.931537941</lat>
      <lon>-155.724082526</lon>
      <name>Kamuela</name>
      <state>HI</state>
    </location>
    <location name="96755">
      <cdi>2</cdi>
      <nresp>1</nresp>
      <dist>26</dist>
      <lat>20.1678850117</lat>
      <lon>-155.783145136</lon>
      <name>Kapaau</name>
      <state>HI</state>
    </location>
  </cdi>
</cdidata>
