<cdidata>
  <cdi type="zip">
    <location name="96704">
      <cdi>2</cdi>
      <nresp>1</nresp>
      <dist>72</dist>
      <lat>19.3358149217</lat>
      <lon>-155.811715146</lon>
      <name>Captain Cook</name>
      <state>HI</state>
    </location>
    <location name="96718">
      <cdi>3.0916</cdi>
      <nresp>1</nresp>
      <dist>26</dist>
      <lat>19.3764529899</lat>
      <lon>-155.361643368</lon>
      <name>Hawaii National Park</name>
      <state>HI</state>
    </location>
    <location name="96720">
      <cdi>2.7027</cdi>
      <nresp>11</nresp>
      <dist>43</dist>
      <lat>19.6696050142</lat>
      <lon>-155.307460679</lon>
      <name>Hilo</name>
      <state>HI</state>
    </location>
    <location name="96740">
      <cdi>2.2372</cdi>
      <nresp>1</nresp>
      <dist>93</dist>
      <lat>19.7409901702</lat>
      <lon>-155.898323017</lon>
      <name>Kailua Kona</name>
      <state>HI</state>
    </location>
    <location name="96749">
      <cdi>2.7613</cdi>
      <nresp>4</nresp>
      <dist>35</dist>
      <lat>19.6195044849</lat>
      <lon>-155.001476088</lon>
      <name>Keaau</name>
      <state>HI</state>
    </location>
    <location name="96750">
      <cdi>2.2372</cdi>
      <nresp>1</nresp>
      <dist>88</dist>
      <lat>19.5222047477</lat>
      <lon>-155.932870818</lon>
      <name>Kealakekua</name>
      <state>HI</state>
    </location>
    <location name="96760">
      <cdi>2.4718</cdi>
      <nresp>2</nresp>
      <dist>28</dist>
      <lat>19.5627940117</lat>
      <lon>-155.031909027</lon>
      <name>Kurtistown</name>
      <state>HI</state>
    </location>
    <location name="96778">
      <cdi>2</cdi>
      <nresp>1</nresp>
      <dist>17</dist>
      <lat>19.4316020081</lat>
      <lon>-155.011419042</lon>
      <name>Pahoa</name>
      <state>HI</state>
    </location>
    <location name="96783">
      <cdi>2</cdi>
      <nresp>1</nresp>
      <dist>55</dist>
      <lat>19.8240572979</lat>
      <lon>-155.158954428</lon>
      <name>Pepeekeo</name>
      <state>HI</state>
    </location>
    <location name="96785">
      <cdi>2.4718</cdi>
      <nresp>2</nresp>
      <dist>22</dist>
      <lat>19.4941740559</lat>
      <lon>-155.209215778</lon>
      <name>Volcano</name>
      <state>HI</state>
    </location>
  </cdi>
</cdidata>
