<cdidata>
  <cdi type="zip">
    <location name="94583">
      <cdi>1</cdi>
      <nresp>1</nresp>
      <dist>180</dist>
      <lat>37.7659173829</lat>
      <lon>-121.990078229</lon>
      <name>San Ramon</name>
      <state>CA</state>
    </location>
    <location name="95422">
      <cdi>2</cdi>
      <nresp>1</nresp>
      <dist>39</dist>
      <lat>38.9761110501</lat>
      <lon>-122.543494727</lon>
      <name>Clearlake</name>
      <state>CA</state>
    </location>
    <location name="95423">
      <cdi>2.4261</cdi>
      <nresp>2</nresp>
      <dist>22</dist>
      <lat>39.1237409093</lat>
      <lon>-122.643192124</lon>
      <name>Clearlake Oaks</name>
      <state>CA</state>
    </location>
    <location name="95451">
      <cdi>3.1663</cdi>
      <nresp>3</nresp>
      <dist>40</dist>
      <lat>38.921044264</lat>
      <lon>-122.79454376</lon>
      <name>Kelseyville</name>
      <state>CA</state>
    </location>
    <location name="95453">
      <cdi>2.4261</cdi>
      <nresp>3</nresp>
      <dist>32</dist>
      <lat>39.0561231508</lat>
      <lon>-122.972725974</lon>
      <name>Lakeport</name>
      <state>CA</state>
    </location>
    <location name="95458">
      <cdi>2.8839</cdi>
      <nresp>3</nresp>
      <dist>25</dist>
      <lat>39.0687532139</lat>
      <lon>-122.773617818</lon>
      <name>Lucerne</name>
      <state>CA</state>
    </location>
    <location name="95464">
      <cdi>2.2372</cdi>
      <nresp>1</nresp>
      <dist>22</dist>
      <lat>39.1177264167</lat>
      <lon>-122.82195143</lon>
      <name>Nice</name>
      <state>CA</state>
    </location>
    <location name="95485">
      <cdi>2.9212</cdi>
      <nresp>5</nresp>
      <dist>20</dist>
      <lat>39.2164509889</lat>
      <lon>-122.923722186</lon>
      <name>Upper Lake</name>
      <state>CA</state>
    </location>
  </cdi>
</cdidata>
