<cdidata>
  <cdi type="zip">
    <location name="93940">
      <cdi>1</cdi>
      <nresp>1</nresp>
      <dist>48</dist>
      <lat>36.5827434701</lat>
      <lon>-121.841088555</lon>
      <name>Monterey</name>
      <state>CA</state>
    </location>
    <location name="94521">
      <cdi>2.2372</cdi>
      <nresp>1</nresp>
      <dist>113</dist>
      <lat>37.9713331484</lat>
      <lon>-121.957127634</lon>
      <name>Concord</name>
      <state>CA</state>
    </location>
    <location name="94596">
      <cdi>2.9370</cdi>
      <nresp>1</nresp>
      <dist>106</dist>
      <lat>37.8884024161</lat>
      <lon>-122.036464813</lon>
      <name>Walnut Creek</name>
      <state>CA</state>
    </location>
    <location name="95003">
      <cdi>2</cdi>
      <nresp>4</nresp>
      <dist>23</dist>
      <lat>37.0096905719</lat>
      <lon>-121.879735429</lon>
      <name>Aptos</name>
      <state>CA</state>
    </location>
    <location name="95020">
      <cdi>2.6464</cdi>
      <nresp>32</nresp>
      <dist>11</dist>
      <lat>37.0188204369</lat>
      <lon>-121.560718867</lon>
      <name>Gilroy</name>
      <state>CA</state>
    </location>
    <location name="95023">
      <cdi>2.6912</cdi>
      <nresp>1</nresp>
      <dist>37</dist>
      <lat>36.8566762391</lat>
      <lon>-121.249223359</lon>
      <name>Hollister</name>
      <state>CA</state>
    </location>
    <location name="95037">
      <cdi>2.3330</cdi>
      <nresp>4</nresp>
      <dist>21</dist>
      <lat>37.1634138038</lat>
      <lon>-121.605115684</lon>
      <name>Morgan Hill</name>
      <state>CA</state>
    </location>
    <location name="95045">
      <cdi>1</cdi>
      <nresp>1</nresp>
      <dist>19</dist>
      <lat>36.850595258</lat>
      <lon>-121.519285401</lon>
      <name>San Juan Bautista</name>
      <state>CA</state>
    </location>
    <location name="95046">
      <cdi>2.6912</cdi>
      <nresp>1</nresp>
      <dist>14</dist>
      <lat>37.0917085406</lat>
      <lon>-121.599158928</lon>
      <name>San Martin</name>
      <state>CA</state>
    </location>
    <location name="95076">
      <cdi>2.4146</cdi>
      <nresp>10</nresp>
      <dist>13</dist>
      <lat>36.9415955433</lat>
      <lon>-121.749518093</lon>
      <name>Watsonville</name>
      <state>CA</state>
    </location>
    <location name="95134">
      <cdi>2.2372</cdi>
      <nresp>1</nresp>
      <dist>57</dist>
      <lat>37.4293950999</lat>
      <lon>-121.945839019</lon>
      <name>San Jose</name>
      <state>CA</state>
    </location>
  </cdi>
</cdidata>
