<cdidata>
  <cdi type="zip">
    <location name="94506">
      <cdi>3.3110</cdi>
      <nresp>1</nresp>
      <dist>10</dist>
      <lat>37.8159141289</lat>
      <lon>-121.910441645</lon>
      <name>Danville</name>
      <state>CA</state>
    </location>
    <location name="94526">
      <cdi>2.2545</cdi>
      <nresp>7</nresp>
      <dist>9</dist>
      <lat>37.8139415505</lat>
      <lon>-121.989888408</lon>
      <name>Danville</name>
      <state>CA</state>
    </location>
    <location name="94528">
      <cdi>2.0883</cdi>
      <nresp>2</nresp>
      <dist>10</dist>
      <lat>37.8407215059</lat>
      <lon>-121.959886078</lon>
      <name>Diablo</name>
      <state>CA</state>
    </location>
    <location name="94546">
      <cdi>2.8570</cdi>
      <nresp>2</nresp>
      <dist>15</dist>
      <lat>37.7535145162</lat>
      <lon>-122.097032395</lon>
      <name>Castro Valley</name>
      <state>CA</state>
    </location>
    <location name="94568">
      <cdi>2.2372</cdi>
      <nresp>2</nresp>
      <dist>14</dist>
      <lat>37.7137844956</lat>
      <lon>-121.909108702</lon>
      <name>Dublin</name>
      <state>CA</state>
    </location>
    <location name="94578">
      <cdi>2.6912</cdi>
      <nresp>2</nresp>
      <dist>19</dist>
      <lat>37.7063627987</lat>
      <lon>-122.125302829</lon>
      <name>San Leandro</name>
      <state>CA</state>
    </location>
    <location name="94582">
      <cdi>2.5612</cdi>
      <nresp>4</nresp>
      <dist>11</dist>
      <lat>37.766003993</lat>
      <lon>-121.906630849</lon>
      <name>San Ramon</name>
      <state>CA</state>
    </location>
    <location name="94583">
      <cdi>3.3345</cdi>
      <nresp>5</nresp>
      <dist>9</dist>
      <lat>37.7659173829</lat>
      <lon>-121.990078229</lon>
      <name>San Ramon</name>
      <state>CA</state>
    </location>
    <location name="94596">
      <cdi>2.6912</cdi>
      <nresp>1</nresp>
      <dist>14</dist>
      <lat>37.8884024161</lat>
      <lon>-122.036464813</lon>
      <name>Walnut Creek</name>
      <state>CA</state>
    </location>
  </cdi>
</cdidata>
