<cdidata>
  <cdi type="city">
    <location name="Jhanjharpur::Bihar::India">
      <cdi>2.0372</cdi>
      <nresp>1</nresp>
      <dist>148</dist>
      <lat>26.27</lat>
      <lon>86.28</lon>
      <name>Jhanjharpur</name>
    </location>
    <location name="Phulwari::Bihar::India">
      <cdi>3.6156</cdi>
      <nresp>1</nresp>
      <dist>229</dist>
      <lat>25.60</lat>
      <lon>85.13</lon>
      <name>Phulwari</name>
    </location>
    <location name="Loharu::Haryana::India">
      <cdi>1</cdi>
      <nresp>1</nresp>
      <dist>993</dist>
      <lat>28.45</lat>
      <lon>75.82</lon>
      <name>Loharu</name>
    </location>
    <location name="Bansgaon::Uttar Pradesh::India">
      <cdi>2</cdi>
      <nresp>3</nresp>
      <dist>274</dist>
      <lat>26.55</lat>
      <lon>83.35</lon>
      <name>Bansgaon</name>
    </location>
    <location name="Bhaktapur::Bhaktapur::Nepal">
      <cdi>3.2754</cdi>
      <nresp>2</nresp>
      <dist>46</dist>
      <lat>27.67</lat>
      <lon>85.43</lon>
      <name>Bhaktapur</name>
    </location>
    <location name="Tribuvannagar::Dang Deokhuri::Nepal">
      <cdi>2.9370</cdi>
      <nresp>1</nresp>
      <dist>53</dist>
      <lat>27.72</lat>
      <lon>85.37</lon>
      <name>Tribuvannagar</name>
    </location>
    <location name="Pokharā::Kaski::Nepal">
      <cdi>2</cdi>
      <nresp>1</nresp>
      <dist>199</dist>
      <lat>28.22</lat>
      <lon>83.99</lon>
      <name>Pokharā</name>
    </location>
    <location name="Kathmandu::Kathmandu::Nepal">
      <cdi>3.6956</cdi>
      <nresp>2</nresp>
      <dist>59</dist>
      <lat>27.71</lat>
      <lon>85.31</lon>
      <name>Kathmandu</name>
    </location>
    <location name="Kirtipur::Kathmandu::Nepal">
      <cdi>2</cdi>
      <nresp>5</nresp>
      <dist>60</dist>
      <lat>27.67</lat>
      <lon>85.28</lon>
      <name>Kirtipur</name>
    </location>
    <location name="Lalitpur::Lalitpur::Nepal">
      <cdi>2</cdi>
      <nresp>2</nresp>
      <dist>57</dist>
      <lat>27.68</lat>
      <lon>85.32</lon>
      <name>Lalitpur</name>
    </location>
    <location name="Siddharthanagar::Rupandehi::Nepal">
      <cdi>2</cdi>
      <nresp>1</nresp>
      <dist>239</dist>
      <lat>27.50</lat>
      <lon>83.45</lon>
      <name>Siddharthanagar</name>
    </location>
  </cdi>
</cdidata>
