<cdidata>
  <cdi type="city">
    <location name="Murwillumbah::New South Wales::Australia">
      <cdi>4.0696</cdi>
      <nresp>1</nresp>
      <dist>333</dist>
      <lat>-28.33</lat>
      <lon>153.40</lon>
      <name>Murwillumbah</name>
    </location>
    <location name="Brisbane::Queensland::Australia">
      <cdi>2</cdi>
      <nresp>1</nresp>
      <dist>256</dist>
      <lat>-27.46</lat>
      <lon>153.02</lon>
      <name>Brisbane</name>
    </location>
    <location name="Buderim::Queensland::Australia">
      <cdi>2.6912</cdi>
      <nresp>1</nresp>
      <dist>182</dist>
      <lat>-26.68</lat>
      <lon>153.05</lon>
      <name>Buderim</name>
    </location>
    <location name="Coolum Beach::Queensland::Australia">
      <cdi>2.6912</cdi>
      <nresp>1</nresp>
      <dist>165</dist>
      <lat>-26.50</lat>
      <lon>153.07</lon>
      <name>Coolum Beach</name>
    </location>
    <location name="Gold Coast::Queensland::Australia">
      <cdi>2</cdi>
      <nresp>1</nresp>
      <dist>304</dist>
      <lat>-28.07</lat>
      <lon>153.44</lon>
      <name>Gold Coast</name>
    </location>
    <location name="Gympie::Queensland::Australia">
      <cdi>2</cdi>
      <nresp>1</nresp>
      <dist>176</dist>
      <lat>-26.19</lat>
      <lon>152.67</lon>
      <name>Gympie</name>
    </location>
    <location name="Hervey Bay::Queensland::Australia">
      <cdi>2</cdi>
      <nresp>3</nresp>
      <dist>137</dist>
      <lat>-25.29</lat>
      <lon>152.84</lon>
      <name>Hervey Bay</name>
    </location>
    <location name="Kawana Waters::Queensland::Australia">
      <cdi>3.6156</cdi>
      <nresp>1</nresp>
      <dist>184</dist>
      <lat>-26.76</lat>
      <lon>153.13</lon>
      <name>Kawana Waters</name>
    </location>
    <location name="Maroochydore-Mooloolaba::Queensland::Australia">
      <cdi>2.3799</cdi>
      <nresp>2</nresp>
      <dist>177</dist>
      <lat>-26.68</lat>
      <lon>153.12</lon>
      <name>Maroochydore-Mooloolaba</name>
    </location>
    <location name="Nerang::Queensland::Australia">
      <cdi>2</cdi>
      <nresp>2</nresp>
      <dist>298</dist>
      <lat>-27.99</lat>
      <lon>153.33</lon>
      <name>Nerang</name>
    </location>
  </cdi>
</cdidata>
