<cdidata>
  <cdi type="zip">
    <location name="67557">
      <cdi>2</cdi>
      <nresp>1</nresp>
      <dist>283</dist>
      <lat>37.909415853</lat>
      <lon>-98.9144959588</lon>
      <name>Macksville</name>
      <state>KS</state>
    </location>
    <location name="74012">
      <cdi>2</cdi>
      <nresp>1</nresp>
      <dist>91</dist>
      <lat>36.0534222354</lat>
      <lon>-95.8042250379</lon>
      <name>Broken Arrow</name>
      <state>OK</state>
    </location>
    <location name="74019">
      <cdi>2.2372</cdi>
      <nresp>1</nresp>
      <dist>113</dist>
      <lat>36.2821833601</lat>
      <lon>-95.6050489434</lon>
      <name>Claremore</name>
      <state>OK</state>
    </location>
    <location name="74023">
      <cdi>3.8142</cdi>
      <nresp>13</nresp>
      <dist>8</dist>
      <lat>35.9970321702</lat>
      <lon>-96.737107477</lon>
      <name>Cushing</name>
      <state>OK</state>
    </location>
    <location name="74059">
      <cdi>2.6912</cdi>
      <nresp>1</nresp>
      <dist>25</dist>
      <lat>35.9797187465</lat>
      <lon>-97.0916283661</lon>
      <name>Perkins</name>
      <state>OK</state>
    </location>
    <location name="74066">
      <cdi>2</cdi>
      <nresp>2</nresp>
      <dist>59</dist>
      <lat>35.9886131945</lat>
      <lon>-96.1598316867</lon>
      <name>Sapulpa</name>
      <state>OK</state>
    </location>
    <location name="74074">
      <cdi>2.8973</cdi>
      <nresp>2</nresp>
      <dist>27</dist>
      <lat>36.0759277283</lat>
      <lon>-97.0995974939</lon>
      <name>Stillwater</name>
      <state>OK</state>
    </location>
    <location name="74075">
      <cdi>2</cdi>
      <nresp>1</nresp>
      <dist>30</dist>
      <lat>36.175402583</lat>
      <lon>-97.0633810292</lon>
      <name>Stillwater</name>
      <state>OK</state>
    </location>
    <location name="74115">
      <cdi>2.2372</cdi>
      <nresp>1</nresp>
      <dist>85</dist>
      <lat>36.1955504607</lat>
      <lon>-95.9059523166</lon>
      <name>Tulsa</name>
      <state>OK</state>
    </location>
  </cdi>
</cdidata>
