<cdidata>
  <cdi type="city">
    <location name="Tribuvannagar::Dang Deokhuri::Nepal">
      <cdi>2.4868</cdi>
      <nresp>3</nresp>
      <dist>70</dist>
      <lat>27.72</lat>
      <lon>85.37</lon>
      <name>Tribuvannagar</name>
    </location>
    <location name="Pokharā::Kaski::Nepal">
      <cdi>2</cdi>
      <nresp>1</nresp>
      <dist>118</dist>
      <lat>28.22</lat>
      <lon>83.99</lon>
      <name>Pokharā</name>
    </location>
    <location name="Kathmandu::Kathmandu::Nepal">
      <cdi>2.8973</cdi>
      <nresp>4</nresp>
      <dist>64</dist>
      <lat>27.71</lat>
      <lon>85.31</lon>
      <name>Kathmandu</name>
    </location>
    <location name="Kirtipur::Kathmandu::Nepal">
      <cdi>2.2372</cdi>
      <nresp>3</nresp>
      <dist>59</dist>
      <lat>27.67</lat>
      <lon>85.28</lon>
      <name>Kirtipur</name>
    </location>
    <location name="Lalitpur::Lalitpur::Nepal">
      <cdi>2.0027</cdi>
      <nresp>3</nresp>
      <dist>63</dist>
      <lat>27.68</lat>
      <lon>85.32</lon>
      <name>Lalitpur</name>
    </location>
  </cdi>
</cdidata>
