<cdidata>
  <cdi type="city">
    <location name="Chiba::Chiba::Japan">
      <cdi>2.8973</cdi>
      <nresp>2</nresp>
      <dist>214</dist>
      <lat>35.61</lat>
      <lon>140.11</lon>
      <name>Chiba</name>
    </location>
    <location name="Kashiwa::Chiba::Japan">
      <cdi>2.6912</cdi>
      <nresp>1</nresp>
      <dist>194</dist>
      <lat>35.87</lat>
      <lon>139.97</lon>
      <name>Kashiwa</name>
    </location>
    <location name="Narita::Chiba::Japan">
      <cdi>3.0916</cdi>
      <nresp>2</nresp>
      <dist>188</dist>
      <lat>35.79</lat>
      <lon>140.32</lon>
      <name>Narita</name>
    </location>
    <location name="Urayasu::Chiba::Japan">
      <cdi>2.6912</cdi>
      <nresp>1</nresp>
      <dist>216</dist>
      <lat>35.67</lat>
      <lon>139.90</lon>
      <name>Urayasu</name>
    </location>
    <location name="Iwaki::Fukushima::Japan">
      <cdi>5.0476</cdi>
      <nresp>3</nresp>
      <dist>47</dist>
      <lat>37.05</lat>
      <lon>140.88</lon>
      <name>Iwaki</name>
    </location>
    <location name="Kōriyama::Fukushima::Japan">
      <cdi>3.4498</cdi>
      <nresp>2</nresp>
      <dist>69</dist>
      <lat>37.41</lat>
      <lon>140.38</lon>
      <name>Kōriyama</name>
    </location>
    <location name="Hitachi::Ibaraki::Japan">
      <cdi>4.2084</cdi>
      <nresp>2</nresp>
      <dist>96</dist>
      <lat>36.59</lat>
      <lon>140.66</lon>
      <name>Hitachi</name>
    </location>
    <location name="Hitachinaka::Ibaraki::Japan">
      <cdi>3.0916</cdi>
      <nresp>1</nresp>
      <dist>120</dist>
      <lat>36.40</lat>
      <lon>140.52</lon>
      <name>Hitachinaka</name>
    </location>
    <location name="Mito::Ibaraki::Japan">
      <cdi>4.4700</cdi>
      <nresp>2</nresp>
      <dist>124</dist>
      <lat>36.38</lat>
      <lon>140.47</lon>
      <name>Mito</name>
    </location>
    <location name="Naka::Ibaraki::Japan">
      <cdi>3.2754</cdi>
      <nresp>2</nresp>
      <dist>168</dist>
      <lat>36.05</lat>
      <lon>140.17</lon>
      <name>Naka</name>
    </location>
    <location name="Toride::Ibaraki::Japan">
      <cdi>3.0916</cdi>
      <nresp>1</nresp>
      <dist>187</dist>
      <lat>35.90</lat>
      <lon>140.07</lon>
      <name>Toride</name>
    </location>
    <location name="Tsuchiura::Ibaraki::Japan">
      <cdi>3.5337</cdi>
      <nresp>4</nresp>
      <dist>163</dist>
      <lat>36.09</lat>
      <lon>140.19</lon>
      <name>Tsuchiura</name>
    </location>
    <location name="Tsukuba::Ibaraki::Japan">
      <cdi>3.4498</cdi>
      <nresp>1</nresp>
      <dist>157</dist>
      <lat>36.21</lat>
      <lon>140.09</lon>
      <name>Tsukuba</name>
    </location>
    <location name="Kawasaki::Kanagawa::Japan">
      <cdi>2.2372</cdi>
      <nresp>1</nresp>
      <dist>239</dist>
      <lat>35.53</lat>
      <lon>139.70</lon>
      <name>Kawasaki</name>
    </location>
    <location name="Sagamihara::Kanagawa::Japan">
      <cdi>2</cdi>
      <nresp>1</nresp>
      <dist>250</dist>
      <lat>35.58</lat>
      <lon>139.38</lon>
      <name>Sagamihara</name>
    </location>
    <location name="Yamato::Kanagawa::Japan">
      <cdi>3.0916</cdi>
      <nresp>1</nresp>
      <dist>251</dist>
      <lat>35.52</lat>
      <lon>139.47</lon>
      <name>Yamato</name>
    </location>
    <location name="Yokohama::Kanagawa::Japan">
      <cdi>2.2372</cdi>
      <nresp>1</nresp>
      <dist>248</dist>
      <lat>35.47</lat>
      <lon>139.62</lon>
      <name>Yokohama</name>
    </location>
    <location name="Zama::Kanagawa::Japan">
      <cdi>2.6912</cdi>
      <nresp>1</nresp>
      <dist>256</dist>
      <lat>35.50</lat>
      <lon>139.40</lon>
      <name>Zama</name>
    </location>
    <location name="Furukawa::Miyagi::Japan">
      <cdi>3.0916</cdi>
      <nresp>1</nresp>
      <dist>138</dist>
      <lat>38.57</lat>
      <lon>140.96</lon>
      <name>Furukawa</name>
    </location>
    <location name="Natori::Miyagi::Japan">
      <cdi>3.4498</cdi>
      <nresp>1</nresp>
      <dist>96</dist>
      <lat>38.16</lat>
      <lon>140.88</lon>
      <name>Natori</name>
    </location>
    <location name="Sendai::Miyagi::Japan">
      <cdi>3.6956</cdi>
      <nresp>4</nresp>
      <dist>106</dist>
      <lat>38.26</lat>
      <lon>140.89</lon>
      <name>Sendai</name>
    </location>
    <location name="Kawaguchi::Saitama::Japan">
      <cdi>2.6912</cdi>
      <nresp>1</nresp>
      <dist>211</dist>
      <lat>35.81</lat>
      <lon>139.73</lon>
      <name>Kawaguchi</name>
    </location>
    <location name="Kōnosu::Saitama::Japan">
      <cdi>2.6912</cdi>
      <nresp>1</nresp>
      <dist>202</dist>
      <lat>36.05</lat>
      <lon>139.53</lon>
      <name>Kōnosu</name>
    </location>
    <location name="Saitama::Saitama::Japan">
      <cdi>2.2372</cdi>
      <nresp>1</nresp>
      <dist>211</dist>
      <lat>35.87</lat>
      <lon>139.64</lon>
      <name>Saitama</name>
    </location>
    <location name="Ashikaga::Tochigi::Japan">
      <cdi>2.6912</cdi>
      <nresp>1</nresp>
      <dist>186</dist>
      <lat>36.35</lat>
      <lon>139.45</lon>
      <name>Ashikaga</name>
    </location>
    <location name="Kuroiso::Tochigi::Japan">
      <cdi>4.5936</cdi>
      <nresp>1</nresp>
      <dist>105</dist>
      <lat>36.98</lat>
      <lon>140.05</lon>
      <name>Kuroiso</name>
    </location>
    <location name="Utsunomiya::Tochigi::Japan">
      <cdi>3.4498</cdi>
      <nresp>4</nresp>
      <dist>141</dist>
      <lat>36.56</lat>
      <lon>139.89</lon>
      <name>Utsunomiya</name>
    </location>
    <location name="Kokubunji::Tokio::Japan">
      <cdi>2.6912</cdi>
      <nresp>1</nresp>
      <dist>235</dist>
      <lat>35.70</lat>
      <lon>139.48</lon>
      <name>Kokubunji</name>
    </location>
    <location name="Mitaka::Tokio::Japan">
      <cdi>2.6912</cdi>
      <nresp>1</nresp>
      <dist>231</dist>
      <lat>35.68</lat>
      <lon>139.57</lon>
      <name>Mitaka</name>
    </location>
    <location name="Musashino::Tokio::Japan">
      <cdi>2.2372</cdi>
      <nresp>1</nresp>
      <dist>228</dist>
      <lat>35.71</lat>
      <lon>139.58</lon>
      <name>Musashino</name>
    </location>
    <location name="Tokyo::Tokio::Japan">
      <cdi>2.6556</cdi>
      <nresp>13</nresp>
      <dist>222</dist>
      <lat>35.67</lat>
      <lon>139.77</lon>
      <name>Tokyo</name>
    </location>
  </cdi>
</cdidata>
