<cdidata>
  <cdi type="city">
    <location name="Barquisimeto::Lara::Venezuela">
      <cdi>3.7738</cdi>
      <nresp>1</nresp>
      <dist>290</dist>
      <lat>10.05</lat>
      <lon>-69.30</lon>
      <name>Barquisimeto</name>
    </location>
    <location name="Petare::Miranda::Venezuela">
      <cdi>2</cdi>
      <nresp>1</nresp>
      <dist>551</dist>
      <lat>10.52</lat>
      <lon>-66.83</lon>
      <name>Petare</name>
    </location>
    <location name="Ejido::Mérida::Venezuela">
      <cdi>4.6040</cdi>
      <nresp>7</nresp>
      <dist>25</dist>
      <lat>8.56</lat>
      <lon>-71.23</lon>
      <name>Ejido</name>
    </location>
    <location name="El Vigía::Mérida::Venezuela">
      <cdi>4.8282</cdi>
      <nresp>1</nresp>
      <dist>34</dist>
      <lat>8.63</lat>
      <lon>-71.65</lon>
      <name>El Vigía</name>
    </location>
    <location name="Trujillo::Trujillo::Venezuela">
      <cdi>4.0696</cdi>
      <nresp>1</nresp>
      <dist>147</dist>
      <lat>9.38</lat>
      <lon>-70.44</lon>
      <name>Trujillo</name>
    </location>
    <location name="Maracaibo::Zulia::Venezuela">
      <cdi>2.6484</cdi>
      <nresp>2</nresp>
      <dist>252</dist>
      <lat>10.73</lat>
      <lon>-71.66</lon>
      <name>Maracaibo</name>
    </location>
    <location name="Villa del Rosario::Zulia::Venezuela">
      <cdi>2</cdi>
      <nresp>1</nresp>
      <dist>229</dist>
      <lat>10.33</lat>
      <lon>-72.31</lon>
      <name>Villa del Rosario</name>
    </location>
    <location name="Cúcuta::Norte de Santander::Colombia">
      <cdi>2.6912</cdi>
      <nresp>1</nresp>
      <dist>138</dist>
      <lat>7.88</lat>
      <lon>-72.51</lon>
      <name>Cúcuta</name>
    </location>
    <location name="Bucaramanga::Santander::Colombia">
      <cdi>2.6912</cdi>
      <nresp>2</nresp>
      <dist>240</dist>
      <lat>7.13</lat>
      <lon>-73.13</lon>
      <name>Bucaramanga</name>
    </location>
    <location name="Piedecuesta::Santander::Colombia">
      <cdi>2.9370</cdi>
      <nresp>1</nresp>
      <dist>243</dist>
      <lat>6.99</lat>
      <lon>-73.05</lon>
      <name>Piedecuesta</name>
    </location>
  </cdi>
</cdidata>
