<cdidata>
  <cdi type="zip">
    <location name="67114">
      <cdi>2</cdi>
      <nresp>1</nresp>
      <dist>232</dist>
      <lat>38.0619508136</lat>
      <lon>-97.2832822534</lon>
      <name>Newton</name>
      <state>KS</state>
    </location>
    <location name="67232">
      <cdi>3.4498</cdi>
      <nresp>1</nresp>
      <dist>184</dist>
      <lat>37.6370247406</lat>
      <lon>-97.1704584083</lon>
      <name>Wichita</name>
      <state>KS</state>
    </location>
    <location name="74023">
      <cdi>2.2372</cdi>
      <nresp>4</nresp>
      <dist>9</dist>
      <lat>35.9970321702</lat>
      <lon>-96.737107477</lon>
      <name>Cushing</name>
      <state>OK</state>
    </location>
    <location name="74066">
      <cdi>2</cdi>
      <nresp>1</nresp>
      <dist>60</dist>
      <lat>35.9886131945</lat>
      <lon>-96.1598316867</lon>
      <name>Sapulpa</name>
      <state>OK</state>
    </location>
    <location name="74119">
      <cdi>1</cdi>
      <nresp>1</nresp>
      <dist>76</dist>
      <lat>36.1416718329</lat>
      <lon>-95.9891883481</lon>
      <name>Tulsa</name>
      <state>OK</state>
    </location>
    <location name="74851">
      <cdi>2.6912</cdi>
      <nresp>1</nresp>
      <dist>71</dist>
      <lat>35.4031104746</lat>
      <lon>-97.0926965117</lon>
      <name>McLoud</name>
      <state>OK</state>
    </location>
  </cdi>
</cdidata>
