<cdidata>
  <cdi type="zip">
    <location name="67133">
      <cdi>2</cdi>
      <nresp>1</nresp>
      <dist>205</dist>
      <lat>37.5767304997</lat>
      <lon>-97.1039969268</lon>
      <name>Rose Hill</name>
      <state>KS</state>
    </location>
    <location name="73034">
      <cdi>4.5936</cdi>
      <nresp>1</nresp>
      <dist>8</dist>
      <lat>35.7023169435</lat>
      <lon>-97.4284925058</lon>
      <name>Edmond</name>
      <state>OK</state>
    </location>
    <location name="73098">
      <cdi>2</cdi>
      <nresp>1</nresp>
      <dist>126</dist>
      <lat>34.604878207</lat>
      <lon>-97.2144863467</lon>
      <name>Wynnewood</name>
      <state>OK</state>
    </location>
    <location name="74023">
      <cdi>2</cdi>
      <nresp>1</nresp>
      <dist>63</dist>
      <lat>35.9970321702</lat>
      <lon>-96.737107477</lon>
      <name>Cushing</name>
      <state>OK</state>
    </location>
    <location name="74930">
      <cdi>2.6912</cdi>
      <nresp>1</nresp>
      <dist>240</dist>
      <lat>35.1433084553</lat>
      <lon>-94.8208033972</lon>
      <name>Bokoshe</name>
      <state>OK</state>
    </location>
  </cdi>
</cdidata>
