<cdidata>
  <cdi type="zip">
    <location name="67005">
      <cdi>2.6912</cdi>
      <nresp>1</nresp>
      <dist>79</dist>
      <lat>37.065145113</lat>
      <lon>-96.9858253723</lon>
      <name>Arkansas City</name>
      <state>KS</state>
    </location>
    <location name="72701">
      <cdi>2.2372</cdi>
      <nresp>1</nresp>
      <dist>275</dist>
      <lat>35.9791586876</lat>
      <lon>-94.078286645</lon>
      <name>Fayetteville</name>
      <state>AR</state>
    </location>
    <location name="73044">
      <cdi>2</cdi>
      <nresp>1</nresp>
      <dist>64</dist>
      <lat>35.8555874545</lat>
      <lon>-97.4533252066</lon>
      <name>Guthrie</name>
      <state>OK</state>
    </location>
    <location name="73061">
      <cdi>3.4498</cdi>
      <nresp>1</nresp>
      <dist>9</dist>
      <lat>36.3125269551</lat>
      <lon>-97.0396483924</lon>
      <name>Morrison</name>
      <state>OK</state>
    </location>
    <location name="73069">
      <cdi>2.2372</cdi>
      <nresp>1</nresp>
      <dist>127</dist>
      <lat>35.2483008817</lat>
      <lon>-97.462346545</lon>
      <name>Norman</name>
      <state>OK</state>
    </location>
    <location name="73071">
      <cdi>3.4498</cdi>
      <nresp>2</nresp>
      <dist>127</dist>
      <lat>35.2411743327</lat>
      <lon>-97.4121112581</lon>
      <name>Norman</name>
      <state>OK</state>
    </location>
    <location name="73077">
      <cdi>2</cdi>
      <nresp>1</nresp>
      <dist>19</dist>
      <lat>36.2984192705</lat>
      <lon>-97.2987540148</lon>
      <name>Perry</name>
      <state>OK</state>
    </location>
    <location name="73162">
      <cdi>1</cdi>
      <nresp>1</nresp>
      <dist>99</dist>
      <lat>35.5808656078</lat>
      <lon>-97.6415225426</lon>
      <name>Oklahoma City</name>
      <state>OK</state>
    </location>
    <location name="74012">
      <cdi>3.6156</cdi>
      <nresp>1</nresp>
      <dist>121</dist>
      <lat>36.0534222354</lat>
      <lon>-95.8042250379</lon>
      <name>Broken Arrow</name>
      <state>OK</state>
    </location>
    <location name="74023">
      <cdi>2.6912</cdi>
      <nresp>1</nresp>
      <dist>52</dist>
      <lat>35.9970321702</lat>
      <lon>-96.737107477</lon>
      <name>Cushing</name>
      <state>OK</state>
    </location>
    <location name="74032">
      <cdi>3.0916</cdi>
      <nresp>2</nresp>
      <dist>24</dist>
      <lat>36.2090916512</lat>
      <lon>-96.9126312998</lon>
      <name>Glencoe</name>
      <state>OK</state>
    </location>
    <location name="74056">
      <cdi>2.2372</cdi>
      <nresp>1</nresp>
      <dist>88</dist>
      <lat>36.8174182155</lat>
      <lon>-96.2930170071</lon>
      <name>Pawhuska</name>
      <state>OK</state>
    </location>
    <location name="74063">
      <cdi>3.4498</cdi>
      <nresp>1</nresp>
      <dist>85</dist>
      <lat>36.1018895691</lat>
      <lon>-96.2093090001</lon>
      <name>Sand Springs</name>
      <state>OK</state>
    </location>
    <location name="74074">
      <cdi>2.1883</cdi>
      <nresp>3</nresp>
      <dist>31</dist>
      <lat>36.0759277283</lat>
      <lon>-97.0995974939</lon>
      <name>Stillwater</name>
      <state>OK</state>
    </location>
    <location name="74075">
      <cdi>3.6798</cdi>
      <nresp>5</nresp>
      <dist>21</dist>
      <lat>36.175402583</lat>
      <lon>-97.0633810292</lon>
      <name>Stillwater</name>
      <state>OK</state>
    </location>
    <location name="74103">
      <cdi>2.6912</cdi>
      <nresp>1</nresp>
      <dist>101</dist>
      <lat>36.1557145461</lat>
      <lon>-95.9947104052</lon>
      <name>Tulsa</name>
      <state>OK</state>
    </location>
    <location name="74107">
      <cdi>2.2372</cdi>
      <nresp>1</nresp>
      <dist>99</dist>
      <lat>36.1063460814</lat>
      <lon>-96.0389847005</lon>
      <name>Tulsa</name>
      <state>OK</state>
    </location>
    <location name="74108">
      <cdi>2.6912</cdi>
      <nresp>1</nresp>
      <dist>120</dist>
      <lat>36.1466090315</lat>
      <lon>-95.7837753843</lon>
      <name>Tulsa</name>
      <state>OK</state>
    </location>
    <location name="74114">
      <cdi>2</cdi>
      <nresp>1</nresp>
      <dist>106</dist>
      <lat>36.1261559611</lat>
      <lon>-95.9461925162</lon>
      <name>Tulsa</name>
      <state>OK</state>
    </location>
    <location name="74128">
      <cdi>2</cdi>
      <nresp>1</nresp>
      <dist>114</dist>
      <lat>36.1469379829</lat>
      <lon>-95.850969085</lon>
      <name>Tulsa</name>
      <state>OK</state>
    </location>
    <location name="74133">
      <cdi>2.2372</cdi>
      <nresp>1</nresp>
      <dist>115</dist>
      <lat>36.0413422515</lat>
      <lon>-95.8789406288</lon>
      <name>Tulsa</name>
      <state>OK</state>
    </location>
    <location name="74136">
      <cdi>2.2372</cdi>
      <nresp>2</nresp>
      <dist>109</dist>
      <lat>36.0617672231</lat>
      <lon>-95.9409568667</lon>
      <name>Tulsa</name>
      <state>OK</state>
    </location>
    <location name="74447">
      <cdi>2.6912</cdi>
      <nresp>1</nresp>
      <dist>124</dist>
      <lat>35.6437227585</lat>
      <lon>-96.0354113646</lon>
      <name>Okmulgee</name>
      <state>OK</state>
    </location>
    <location name="74604">
      <cdi>2.6051</cdi>
      <nresp>2</nresp>
      <dist>38</dist>
      <lat>36.6894344421</lat>
      <lon>-96.9613505909</lon>
      <name>Ponca City</name>
      <state>OK</state>
    </location>
  </cdi>
</cdidata>
