<cdidata>
  <cdi type="zip">
    <location name="04924">
      <cdi>1</cdi>
      <nresp>1</nresp>
      <dist>268</dist>
      <lat>44.7555365342</lat>
      <lon>-69.5364751257</lon>
      <name>Canaan</name>
      <state>ME</state>
    </location>
  </cdi>
  <cdi type="city">
    <location name="Bridgewater::Nova Scotia::Canada">
      <cdi>3.7738</cdi>
      <nresp>1</nresp>
      <dist>144</dist>
      <lat>44.38</lat>
      <lon>-64.52</lon>
      <name>Bridgewater</name>
    </location>
    <location name="Digby::Nova Scotia::Canada">
      <cdi>2.3677</cdi>
      <nresp>7</nresp>
      <dist>69</dist>
      <lat>44.62</lat>
      <lon>-65.77</lon>
      <name>Digby</name>
    </location>
    <location name="Enfield::Nova Scotia::Canada">
      <cdi>1</cdi>
      <nresp>1</nresp>
      <dist>236</dist>
      <lat>44.93</lat>
      <lon>-63.54</lon>
      <name>Enfield</name>
    </location>
    <location name="Inverness::Nova Scotia::Canada">
      <cdi>3.6156</cdi>
      <nresp>1</nresp>
      <dist>457</dist>
      <lat>46.24</lat>
      <lon>-61.31</lon>
      <name>Inverness</name>
    </location>
    <location name="Lake Echo::Nova Scotia::Canada">
      <cdi>3.4498</cdi>
      <nresp>2</nresp>
      <dist>239</dist>
      <lat>44.82</lat>
      <lon>-63.44</lon>
      <name>Lake Echo</name>
    </location>
    <location name="Shelburne::Nova Scotia::Canada">
      <cdi>2.3799</cdi>
      <nresp>2</nresp>
      <dist>87</dist>
      <lat>43.77</lat>
      <lon>-65.32</lon>
      <name>Shelburne</name>
    </location>
    <location name="Yarmouth::Nova Scotia::Canada">
      <cdi>3.3470</cdi>
      <nresp>76</nresp>
      <dist>34</dist>
      <lat>43.84</lat>
      <lon>-66.12</lon>
      <name>Yarmouth</name>
    </location>
  </cdi>
</cdidata>
