<cdidata>
  <cdi type="zip">
    <location name="73003">
      <cdi>3.4498</cdi>
      <nresp>1</nresp>
      <dist>15</dist>
      <lat>35.6683436545</lat>
      <lon>-97.4969186829</lon>
      <name>Edmond</name>
      <state>OK</state>
    </location>
    <location name="73012">
      <cdi>3.2754</cdi>
      <nresp>2</nresp>
      <dist>21</dist>
      <lat>35.6675590393</lat>
      <lon>-97.593966579</lon>
      <name>Edmond</name>
      <state>OK</state>
    </location>
    <location name="73013">
      <cdi>2.4718</cdi>
      <nresp>2</nresp>
      <dist>18</dist>
      <lat>35.6220704839</lat>
      <lon>-97.4858455914</lon>
      <name>Edmond</name>
      <state>OK</state>
    </location>
    <location name="73025">
      <cdi>3.2754</cdi>
      <nresp>3</nresp>
      <dist>17</dist>
      <lat>35.7318376753</lat>
      <lon>-97.574819097</lon>
      <name>Edmond</name>
      <state>OK</state>
    </location>
    <location name="73034">
      <cdi>3.1354</cdi>
      <nresp>10</nresp>
      <dist>10</dist>
      <lat>35.7023169435</lat>
      <lon>-97.4284925058</lon>
      <name>Edmond</name>
      <state>OK</state>
    </location>
    <location name="73044">
      <cdi>4.4700</cdi>
      <nresp>1</nresp>
      <dist>13</dist>
      <lat>35.8555874545</lat>
      <lon>-97.4533252066</lon>
      <name>Guthrie</name>
      <state>OK</state>
    </location>
    <location name="73054">
      <cdi>2</cdi>
      <nresp>1</nresp>
      <dist>23</dist>
      <lat>35.6691143696</lat>
      <lon>-97.191976607</lon>
      <name>Luther</name>
      <state>OK</state>
    </location>
    <location name="73099">
      <cdi>2.6912</cdi>
      <nresp>1</nresp>
      <dist>41</dist>
      <lat>35.5251099208</lat>
      <lon>-97.7584631196</lon>
      <name>Yukon</name>
      <state>OK</state>
    </location>
    <location name="73120">
      <cdi>3.0916</cdi>
      <nresp>1</nresp>
      <dist>26</dist>
      <lat>35.578955654</lat>
      <lon>-97.5741492628</lon>
      <name>Oklahoma City</name>
      <state>OK</state>
    </location>
    <location name="74857">
      <cdi>2</cdi>
      <nresp>1</nresp>
      <dist>51</dist>
      <lat>35.3419691675</lat>
      <lon>-97.1962017041</lon>
      <name>Newalla</name>
      <state>OK</state>
    </location>
  </cdi>
</cdidata>
