<cdidata>
  <cdi type="zip">
    <location name="67213">
      <cdi>2.1883</cdi>
      <nresp>2</nresp>
      <dist>125</dist>
      <lat>37.6671791773</lat>
      <lon>-97.36386853</lon>
      <name>Wichita</name>
      <state>KS</state>
    </location>
    <location name="73701">
      <cdi>2.6912</cdi>
      <nresp>3</nresp>
      <dist>21</dist>
      <lat>36.4049653505</lat>
      <lon>-97.8200653927</lon>
      <name>Enid</name>
      <state>OK</state>
    </location>
    <location name="73703">
      <cdi>2.9370</cdi>
      <nresp>3</nresp>
      <dist>29</dist>
      <lat>36.3996561482</lat>
      <lon>-97.9455732831</lon>
      <name>Enid</name>
      <state>OK</state>
    </location>
    <location name="73728">
      <cdi>3.0916</cdi>
      <nresp>1</nresp>
      <dist>63</dist>
      <lat>36.7610465168</lat>
      <lon>-98.3690400836</lon>
      <name>Cherokee</name>
      <state>OK</state>
    </location>
    <location name="73759">
      <cdi>4.2084</cdi>
      <nresp>1</nresp>
      <dist>32</dist>
      <lat>36.855793831</lat>
      <lon>-97.6934025249</lon>
      <name>Medford</name>
      <state>OK</state>
    </location>
    <location name="74055">
      <cdi>2</cdi>
      <nresp>1</nresp>
      <dist>171</dist>
      <lat>36.2761266346</lat>
      <lon>-95.8175582945</lon>
      <name>Owasso</name>
      <state>OK</state>
    </location>
    <location name="74120">
      <cdi>2</cdi>
      <nresp>1</nresp>
      <dist>161</dist>
      <lat>36.1500754484</lat>
      <lon>-95.9765243594</lon>
      <name>Tulsa</name>
      <state>OK</state>
    </location>
  </cdi>
</cdidata>
