<cdidata>
  <cdi type="city">
    <location name="Colomandu::Jawa Tengah::Indonesia">
      <cdi>2.6912</cdi>
      <nresp>1</nresp>
      <dist>66</dist>
      <lat>-7.53</lat>
      <lon>110.75</lon>
      <name>Colomandu</name>
    </location>
    <location name="Prambanan::Jawa Tengah::Indonesia">
      <cdi>2.8299</cdi>
      <nresp>3</nresp>
      <dist>32</dist>
      <lat>-7.75</lat>
      <lon>110.50</lon>
      <name>Prambanan</name>
    </location>
    <location name="Bantul::Yogyakarta::Indonesia">
      <cdi>3.0916</cdi>
      <nresp>1</nresp>
      <dist>18</dist>
      <lat>-7.88</lat>
      <lon>110.33</lon>
      <name>Bantul</name>
    </location>
    <location name="Mlati::Yogyakarta::Indonesia">
      <cdi>3.4498</cdi>
      <nresp>1</nresp>
      <dist>33</dist>
      <lat>-7.73</lat>
      <lon>110.36</lon>
      <name>Mlati</name>
    </location>
    <location name="Pundong::Yogyakarta::Indonesia">
      <cdi>3.0916</cdi>
      <nresp>1</nresp>
      <dist>11</dist>
      <lat>-7.95</lat>
      <lon>110.35</lon>
      <name>Pundong</name>
    </location>
    <location name="Sewon::Yogyakarta::Indonesia">
      <cdi>2.8973</cdi>
      <nresp>2</nresp>
      <dist>17</dist>
      <lat>-7.88</lat>
      <lon>110.35</lon>
      <name>Sewon</name>
    </location>
    <location name="Yogyakarta::Yogyakarta::Indonesia">
      <cdi>3.4498</cdi>
      <nresp>2</nresp>
      <dist>27</dist>
      <lat>-7.78</lat>
      <lon>110.37</lon>
      <name>Yogyakarta</name>
    </location>
  </cdi>
</cdidata>
