<cdidata>
  <cdi type="zip">
    <location name="67110">
      <cdi>2.0372</cdi>
      <nresp>2</nresp>
      <dist>169</dist>
      <lat>37.4656104721</lat>
      <lon>-97.2199102898</lon>
      <name>Mulvane</name>
      <state>KS</state>
    </location>
    <location name="67216">
      <cdi>3.0916</cdi>
      <nresp>1</nresp>
      <dist>185</dist>
      <lat>37.6082148038</lat>
      <lon>-97.314056177</lon>
      <name>Wichita</name>
      <state>KS</state>
    </location>
    <location name="73025">
      <cdi>2</cdi>
      <nresp>1</nresp>
      <dist>31</dist>
      <lat>35.7318376753</lat>
      <lon>-97.574819097</lon>
      <name>Edmond</name>
      <state>OK</state>
    </location>
    <location name="73027">
      <cdi>5.1522</cdi>
      <nresp>1</nresp>
      <dist>13</dist>
      <lat>35.8886780296</lat>
      <lon>-97.2208866929</lon>
      <name>Coyle</name>
      <state>OK</state>
    </location>
    <location name="73044">
      <cdi>3.8912</cdi>
      <nresp>5</nresp>
      <dist>15</dist>
      <lat>35.8555874545</lat>
      <lon>-97.4533252066</lon>
      <name>Guthrie</name>
      <state>OK</state>
    </location>
    <location name="73072">
      <cdi>2.2372</cdi>
      <nresp>1</nresp>
      <dist>81</dist>
      <lat>35.2154624134</lat>
      <lon>-97.4942440373</lon>
      <name>Norman</name>
      <state>OK</state>
    </location>
    <location name="73115">
      <cdi>2.6912</cdi>
      <nresp>1</nresp>
      <dist>56</dist>
      <lat>35.4424083444</lat>
      <lon>-97.4414316001</lon>
      <name>Oklahoma City</name>
      <state>OK</state>
    </location>
    <location name="73132">
      <cdi>2.2372</cdi>
      <nresp>1</nresp>
      <dist>50</dist>
      <lat>35.5513031039</lat>
      <lon>-97.6345444976</lon>
      <name>Oklahoma City</name>
      <state>OK</state>
    </location>
    <location name="73134">
      <cdi>2.0372</cdi>
      <nresp>1</nresp>
      <dist>42</dist>
      <lat>35.616130717</lat>
      <lon>-97.5754984565</lon>
      <name>Oklahoma City</name>
      <state>OK</state>
    </location>
    <location name="73142">
      <cdi>2.6912</cdi>
      <nresp>1</nresp>
      <dist>45</dist>
      <lat>35.6092863133</lat>
      <lon>-97.6384003062</lon>
      <name>Oklahoma City</name>
      <state>OK</state>
    </location>
    <location name="73162">
      <cdi>1</cdi>
      <nresp>1</nresp>
      <dist>48</dist>
      <lat>35.5808656078</lat>
      <lon>-97.6415225426</lon>
      <name>Oklahoma City</name>
      <state>OK</state>
    </location>
    <location name="74023">
      <cdi>2</cdi>
      <nresp>2</nresp>
      <dist>55</dist>
      <lat>35.9970321702</lat>
      <lon>-96.737107477</lon>
      <name>Cushing</name>
      <state>OK</state>
    </location>
    <location name="74033">
      <cdi>2.2372</cdi>
      <nresp>1</nresp>
      <dist>120</dist>
      <lat>35.9417995052</lat>
      <lon>-96.0044757526</lon>
      <name>Glenpool</name>
      <state>OK</state>
    </location>
    <location name="74037">
      <cdi>2.2372</cdi>
      <nresp>1</nresp>
      <dist>122</dist>
      <lat>36.0015021664</lat>
      <lon>-95.981016881</lon>
      <name>Jenks</name>
      <state>OK</state>
    </location>
    <location name="74044">
      <cdi>2.2372</cdi>
      <nresp>1</nresp>
      <dist>86</dist>
      <lat>36.0838683193</lat>
      <lon>-96.3986005317</lon>
      <name>Mannford</name>
      <state>OK</state>
    </location>
    <location name="74074">
      <cdi>2</cdi>
      <nresp>1</nresp>
      <dist>27</dist>
      <lat>36.0759277283</lat>
      <lon>-97.0995974939</lon>
      <name>Stillwater</name>
      <state>OK</state>
    </location>
    <location name="74075">
      <cdi>2.2372</cdi>
      <nresp>1</nresp>
      <dist>36</dist>
      <lat>36.175402583</lat>
      <lon>-97.0633810292</lon>
      <name>Stillwater</name>
      <state>OK</state>
    </location>
    <location name="74114">
      <cdi>3.0916</cdi>
      <nresp>1</nresp>
      <dist>127</dist>
      <lat>36.1261559611</lat>
      <lon>-95.9461925162</lon>
      <name>Tulsa</name>
      <state>OK</state>
    </location>
    <location name="74119">
      <cdi>2</cdi>
      <nresp>1</nresp>
      <dist>123</dist>
      <lat>36.1416718329</lat>
      <lon>-95.9891883481</lon>
      <name>Tulsa</name>
      <state>OK</state>
    </location>
    <location name="74129">
      <cdi>2</cdi>
      <nresp>1</nresp>
      <dist>134</dist>
      <lat>36.1262257904</lat>
      <lon>-95.8688929266</lon>
      <name>Tulsa</name>
      <state>OK</state>
    </location>
    <location name="74133">
      <cdi>2.2372</cdi>
      <nresp>1</nresp>
      <dist>132</dist>
      <lat>36.0413422515</lat>
      <lon>-95.8789406288</lon>
      <name>Tulsa</name>
      <state>OK</state>
    </location>
    <location name="74136">
      <cdi>2</cdi>
      <nresp>1</nresp>
      <dist>127</dist>
      <lat>36.0617672231</lat>
      <lon>-95.9409568667</lon>
      <name>Tulsa</name>
      <state>OK</state>
    </location>
  </cdi>
</cdidata>
