<cdidata>
  <cdi type="city">
    <location name="Bhaluka::Maimansingh::Bangladesh">
      <cdi>2</cdi>
      <nresp>1</nresp>
      <dist>568</dist>
      <lat>24.40</lat>
      <lon>90.38</lon>
      <name>Bhaluka</name>
    </location>
    <location name="Samastīpur::Bihar::India">
      <cdi>2.3799</cdi>
      <nresp>2</nresp>
      <dist>199</dist>
      <lat>25.85</lat>
      <lon>85.78</lon>
      <name>Samastīpur</name>
    </location>
    <location name="Lakhnau::Uttar Pradesh::India">
      <cdi>2</cdi>
      <nresp>1</nresp>
      <dist>508</dist>
      <lat>26.85</lat>
      <lon>80.92</lon>
      <name>Lakhnau</name>
    </location>
    <location name="Unao::Uttar Pradesh::India">
      <cdi>2</cdi>
      <nresp>1</nresp>
      <dist>557</dist>
      <lat>26.55</lat>
      <lon>80.49</lon>
      <name>Unao</name>
    </location>
    <location name="Kalaiyā::Bara::Nepal">
      <cdi>2.2372</cdi>
      <nresp>1</nresp>
      <dist>118</dist>
      <lat>27.03</lat>
      <lon>85.00</lon>
      <name>Kalaiyā</name>
    </location>
    <location name="Bhaktapur::Bhaktapur::Nepal">
      <cdi>3.3637</cdi>
      <nresp>5</nresp>
      <dist>55</dist>
      <lat>27.67</lat>
      <lon>85.43</lon>
      <name>Bhaktapur</name>
    </location>
    <location name="Tribuvannagar::Dang Deokhuri::Nepal">
      <cdi>2.9074</cdi>
      <nresp>9</nresp>
      <dist>61</dist>
      <lat>27.72</lat>
      <lon>85.37</lon>
      <name>Tribuvannagar</name>
    </location>
    <location name="Bhimeshwar::Dolakha::Nepal">
      <cdi>3.7738</cdi>
      <nresp>1</nresp>
      <dist>12</dist>
      <lat>27.67</lat>
      <lon>86.03</lon>
      <name>Bhimeshwar</name>
    </location>
    <location name="Pokharā::Kaski::Nepal">
      <cdi>4.2084</cdi>
      <nresp>4</nresp>
      <dist>206</dist>
      <lat>28.22</lat>
      <lon>83.99</lon>
      <name>Pokharā</name>
    </location>
    <location name="Kathmandu::Kathmandu::Nepal">
      <cdi>3.3874</cdi>
      <nresp>12</nresp>
      <dist>67</dist>
      <lat>27.71</lat>
      <lon>85.31</lon>
      <name>Kathmandu</name>
    </location>
    <location name="Kirtipur::Kathmandu::Nepal">
      <cdi>3.1460</cdi>
      <nresp>24</nresp>
      <dist>70</dist>
      <lat>27.67</lat>
      <lon>85.28</lon>
      <name>Kirtipur</name>
    </location>
    <location name="Banepa::Kavrepalanchok::Nepal">
      <cdi>2</cdi>
      <nresp>1</nresp>
      <dist>46</dist>
      <lat>27.63</lat>
      <lon>85.52</lon>
      <name>Banepa</name>
    </location>
    <location name="Dhulikhet::Kavrepalanchok::Nepal">
      <cdi>5.2537</cdi>
      <nresp>1</nresp>
      <dist>43</dist>
      <lat>27.62</lat>
      <lon>85.55</lon>
      <name>Dhulikhet</name>
    </location>
    <location name="Lalitpur::Lalitpur::Nepal">
      <cdi>3.3811</cdi>
      <nresp>6</nresp>
      <dist>66</dist>
      <lat>27.68</lat>
      <lon>85.32</lon>
      <name>Lalitpur</name>
    </location>
  </cdi>
</cdidata>
