<cdidata>
  <cdi type="zip">
    <location name="73007">
      <cdi>3.0916</cdi>
      <nresp>2</nresp>
      <dist>10</dist>
      <lat>35.685166984</lat>
      <lon>-97.3241441</lon>
      <name>Arcadia</name>
      <state>OK</state>
    </location>
    <location name="73013">
      <cdi>2.2372</cdi>
      <nresp>1</nresp>
      <dist>17</dist>
      <lat>35.6220704839</lat>
      <lon>-97.4858455914</lon>
      <name>Edmond</name>
      <state>OK</state>
    </location>
    <location name="73034">
      <cdi>4.0554</cdi>
      <nresp>6</nresp>
      <dist>8</dist>
      <lat>35.7023169435</lat>
      <lon>-97.4284925058</lon>
      <name>Edmond</name>
      <state>OK</state>
    </location>
    <location name="73134">
      <cdi>2.6912</cdi>
      <nresp>1</nresp>
      <dist>23</dist>
      <lat>35.616130717</lat>
      <lon>-97.5754984565</lon>
      <name>Oklahoma City</name>
      <state>OK</state>
    </location>
    <location name="73162">
      <cdi>2</cdi>
      <nresp>1</nresp>
      <dist>30</dist>
      <lat>35.5808656078</lat>
      <lon>-97.6415225426</lon>
      <name>Oklahoma City</name>
      <state>OK</state>
    </location>
    <location name="74023">
      <cdi>2</cdi>
      <nresp>1</nresp>
      <dist>65</dist>
      <lat>35.9970321702</lat>
      <lon>-96.737107477</lon>
      <name>Cushing</name>
      <state>OK</state>
    </location>
    <location name="74137">
      <cdi>2</cdi>
      <nresp>1</nresp>
      <dist>135</dist>
      <lat>36.0208833454</lat>
      <lon>-95.92912403</lon>
      <name>Tulsa</name>
      <state>OK</state>
    </location>
  </cdi>
</cdidata>
