<cdidata>
  <cdi type="zip">
    <location name="67202">
      <cdi>2.6912</cdi>
      <nresp>1</nresp>
      <dist>172</dist>
      <lat>37.6861204417</lat>
      <lon>-97.3343203619</lon>
      <name>Wichita</name>
      <state>KS</state>
    </location>
    <location name="67207">
      <cdi>2</cdi>
      <nresp>1</nresp>
      <dist>170</dist>
      <lat>37.6672980796</lat>
      <lon>-97.2265847962</lon>
      <name>Wichita</name>
      <state>KS</state>
    </location>
    <location name="67208">
      <cdi>2.2372</cdi>
      <nresp>1</nresp>
      <dist>174</dist>
      <lat>37.7046283725</lat>
      <lon>-97.2805432325</lon>
      <name>Wichita</name>
      <state>KS</state>
    </location>
    <location name="67211">
      <cdi>2</cdi>
      <nresp>1</nresp>
      <dist>170</dist>
      <lat>37.6671074036</lat>
      <lon>-97.3175664461</lon>
      <name>Wichita</name>
      <state>KS</state>
    </location>
    <location name="67214">
      <cdi>3.9543</cdi>
      <nresp>1</nresp>
      <dist>174</dist>
      <lat>37.7053583689</lat>
      <lon>-97.3177636222</lon>
      <name>Wichita</name>
      <state>KS</state>
    </location>
    <location name="67218">
      <cdi>2.2372</cdi>
      <nresp>1</nresp>
      <dist>170</dist>
      <lat>37.6682943682</lat>
      <lon>-97.2804802674</lon>
      <name>Wichita</name>
      <state>KS</state>
    </location>
    <location name="67226">
      <cdi>2</cdi>
      <nresp>1</nresp>
      <dist>181</dist>
      <lat>37.7686679329</lat>
      <lon>-97.2224601497</lon>
      <name>Wichita</name>
      <state>KS</state>
    </location>
    <location name="73034">
      <cdi>3.0916</cdi>
      <nresp>1</nresp>
      <dist>50</dist>
      <lat>35.7023169435</lat>
      <lon>-97.4284925058</lon>
      <name>Edmond</name>
      <state>OK</state>
    </location>
    <location name="73071">
      <cdi>3.4498</cdi>
      <nresp>1</nresp>
      <dist>100</dist>
      <lat>35.2411743327</lat>
      <lon>-97.4121112581</lon>
      <name>Norman</name>
      <state>OK</state>
    </location>
    <location name="73073">
      <cdi>3.4498</cdi>
      <nresp>1</nresp>
      <dist>15</dist>
      <lat>36.1327356471</lat>
      <lon>-97.4344452141</lon>
      <name>Orlando</name>
      <state>OK</state>
    </location>
    <location name="73099">
      <cdi>2.6912</cdi>
      <nresp>1</nresp>
      <dist>80</dist>
      <lat>35.5251099208</lat>
      <lon>-97.7584631196</lon>
      <name>Yukon</name>
      <state>OK</state>
    </location>
    <location name="73106">
      <cdi>2</cdi>
      <nresp>1</nresp>
      <dist>76</dist>
      <lat>35.4823603164</lat>
      <lon>-97.5367060492</lon>
      <name>Oklahoma City</name>
      <state>OK</state>
    </location>
    <location name="73134">
      <cdi>2</cdi>
      <nresp>1</nresp>
      <dist>63</dist>
      <lat>35.616130717</lat>
      <lon>-97.5754984565</lon>
      <name>Oklahoma City</name>
      <state>OK</state>
    </location>
    <location name="74023">
      <cdi>2</cdi>
      <nresp>1</nresp>
      <dist>51</dist>
      <lat>35.9970321702</lat>
      <lon>-96.737107477</lon>
      <name>Cushing</name>
      <state>OK</state>
    </location>
    <location name="74074">
      <cdi>3.2645</cdi>
      <nresp>12</nresp>
      <dist>18</dist>
      <lat>36.0759277283</lat>
      <lon>-97.0995974939</lon>
      <name>Stillwater</name>
      <state>OK</state>
    </location>
    <location name="74075">
      <cdi>2.1981</cdi>
      <nresp>5</nresp>
      <dist>20</dist>
      <lat>36.175402583</lat>
      <lon>-97.0633810292</lon>
      <name>Stillwater</name>
      <state>OK</state>
    </location>
    <location name="74105">
      <cdi>2.0372</cdi>
      <nresp>1</nresp>
      <dist>118</dist>
      <lat>36.097220527</lat>
      <lon>-95.9631988411</lon>
      <name>Tulsa</name>
      <state>OK</state>
    </location>
    <location name="74114">
      <cdi>2.2372</cdi>
      <nresp>1</nresp>
      <dist>120</dist>
      <lat>36.1261559611</lat>
      <lon>-95.9461925162</lon>
      <name>Tulsa</name>
      <state>OK</state>
    </location>
    <location name="74119">
      <cdi>2</cdi>
      <nresp>1</nresp>
      <dist>116</dist>
      <lat>36.1416718329</lat>
      <lon>-95.9891883481</lon>
      <name>Tulsa</name>
      <state>OK</state>
    </location>
    <location name="74120">
      <cdi>2.2372</cdi>
      <nresp>1</nresp>
      <dist>117</dist>
      <lat>36.1500754484</lat>
      <lon>-95.9765243594</lon>
      <name>Tulsa</name>
      <state>OK</state>
    </location>
    <location name="74601">
      <cdi>2.2372</cdi>
      <nresp>1</nresp>
      <dist>65</dist>
      <lat>36.7162740821</lat>
      <lon>-97.1471619885</lon>
      <name>Ponca City</name>
      <state>OK</state>
    </location>
    <location name="74644">
      <cdi>2.2372</cdi>
      <nresp>1</nresp>
      <dist>50</dist>
      <lat>36.5500488707</lat>
      <lon>-97.0587219188</lon>
      <name>Marland</name>
      <state>OK</state>
    </location>
  </cdi>
</cdidata>
