<cdidata>
  <cdi type="city">
    <location name="Mendoza::Mendoza::Argentina">
      <cdi>2.6912</cdi>
      <nresp>2</nresp>
      <dist>310</dist>
      <lat>-32.89</lat>
      <lon>-68.83</lon>
      <name>Mendoza</name>
    </location>
    <location name="San Juan::San Juan::Argentina">
      <cdi>2</cdi>
      <nresp>2</nresp>
      <dist>346</dist>
      <lat>-31.54</lat>
      <lon>-68.53</lon>
      <name>San Juan</name>
    </location>
    <location name="Graneros::Libertador General Bernardo OʿHiggins::Chile">
      <cdi>3.4498</cdi>
      <nresp>1</nresp>
      <dist>230</dist>
      <lat>-34.07</lat>
      <lon>-70.72</lon>
      <name>Graneros</name>
    </location>
    <location name="San Bernardo::Metropolitana::Chile">
      <cdi>3.7738</cdi>
      <nresp>1</nresp>
      <dist>190</dist>
      <lat>-33.60</lat>
      <lon>-70.70</lon>
      <name>San Bernardo</name>
    </location>
    <location name="Santiago::Metropolitana::Chile">
      <cdi>2.8779</cdi>
      <nresp>24</nresp>
      <dist>183</dist>
      <lat>-33.46</lat>
      <lon>-70.64</lon>
      <name>Santiago</name>
    </location>
    <location name="La Ligua::Valparaíso::Chile">
      <cdi>3.7738</cdi>
      <nresp>2</nresp>
      <dist>81</dist>
      <lat>-32.46</lat>
      <lon>-71.24</lon>
      <name>La Ligua</name>
    </location>
    <location name="Limache::Valparaíso::Chile">
      <cdi>3.0916</cdi>
      <nresp>3</nresp>
      <dist>108</dist>
      <lat>-33.02</lat>
      <lon>-71.27</lon>
      <name>Limache</name>
    </location>
    <location name="Quillota::Valparaíso::Chile">
      <cdi>2.6912</cdi>
      <nresp>1</nresp>
      <dist>98</dist>
      <lat>-32.88</lat>
      <lon>-71.26</lon>
      <name>Quillota</name>
    </location>
    <location name="Quilpué::Valparaíso::Chile">
      <cdi>3.0916</cdi>
      <nresp>2</nresp>
      <dist>96</dist>
      <lat>-33.04</lat>
      <lon>-71.50</lon>
      <name>Quilpué</name>
    </location>
    <location name="San Antonio::Valparaíso::Chile">
      <cdi>2.4718</cdi>
      <nresp>2</nresp>
      <dist>147</dist>
      <lat>-33.60</lat>
      <lon>-71.61</lon>
      <name>San Antonio</name>
    </location>
    <location name="Valparaíso::Valparaíso::Chile">
      <cdi>4.3417</cdi>
      <nresp>3</nresp>
      <dist>89</dist>
      <lat>-33.04</lat>
      <lon>-71.64</lon>
      <name>Valparaíso</name>
    </location>
    <location name="Viña del Mar::Valparaíso::Chile">
      <cdi>3.0916</cdi>
      <nresp>4</nresp>
      <dist>91</dist>
      <lat>-33.01</lat>
      <lon>-71.55</lon>
      <name>Viña del Mar</name>
    </location>
  </cdi>
</cdidata>
