<cdidata>
  <cdi type="city">
    <location name="Hualian::Hualien::Taiwan">
      <cdi>3.0916</cdi>
      <nresp>1</nresp>
      <dist>132</dist>
      <lat>23.99</lat>
      <lon>121.59</lon>
      <name>Hualian</name>
    </location>
    <location name="Fengshan::Kaohsiung Hsien::Taiwan">
      <cdi>2</cdi>
      <nresp>1</nresp>
      <dist>129</dist>
      <lat>22.63</lat>
      <lon>120.35</lon>
      <name>Fengshan</name>
    </location>
    <location name="Kangshan::Kaohsiung Hsien::Taiwan">
      <cdi>3.6956</cdi>
      <nresp>2</nresp>
      <dist>136</dist>
      <lat>22.80</lat>
      <lon>120.27</lon>
      <name>Kangshan</name>
    </location>
    <location name="Kaohsiung::Kaohsiung Shih::Taiwan">
      <cdi>3.0916</cdi>
      <nresp>1</nresp>
      <dist>137</dist>
      <lat>22.63</lat>
      <lon>120.27</lon>
      <name>Kaohsiung</name>
    </location>
    <location name="Taichung::Taichung Shih::Taiwan">
      <cdi>2.2372</cdi>
      <nresp>1</nresp>
      <dist>176</dist>
      <lat>24.15</lat>
      <lon>120.68</lon>
      <name>Taichung</name>
    </location>
    <location name="Tainan::Tainan Shih::Taiwan">
      <cdi>3.7738</cdi>
      <nresp>1</nresp>
      <dist>146</dist>
      <lat>23.00</lat>
      <lon>120.19</lon>
      <name>Tainan</name>
    </location>
    <location name="Hsinchuang::Taipei Hsien::Taiwan">
      <cdi>1</cdi>
      <nresp>1</nresp>
      <dist>248</dist>
      <lat>25.04</lat>
      <lon>121.44</lon>
      <name>Hsinchuang</name>
    </location>
    <location name="Luchou::Taipei Hsien::Taiwan">
      <cdi>2</cdi>
      <nresp>2</nresp>
      <dist>252</dist>
      <lat>25.08</lat>
      <lon>121.47</lon>
      <name>Luchou</name>
    </location>
    <location name="Yungho::Taipei Hsien::Taiwan">
      <cdi>2.6912</cdi>
      <nresp>1</nresp>
      <dist>246</dist>
      <lat>25.02</lat>
      <lon>121.51</lon>
      <name>Yungho</name>
    </location>
    <location name="Taitung::Taitung::Taiwan">
      <cdi>2.6912</cdi>
      <nresp>1</nresp>
      <dist>48</dist>
      <lat>22.76</lat>
      <lon>121.14</lon>
      <name>Taitung</name>
    </location>
  </cdi>
</cdidata>
