<cdidata>
  <cdi type="city">
    <location name="Kōriyama::Fukushima::Japan">
      <cdi>2.2372</cdi>
      <nresp>1</nresp>
      <dist>776</dist>
      <lat>37.41</lat>
      <lon>140.38</lon>
      <name>Kōriyama</name>
    </location>
    <location name="Yokohama::Kanagawa::Japan">
      <cdi>2</cdi>
      <nresp>1</nresp>
      <dist>610</dist>
      <lat>35.47</lat>
      <lon>139.62</lon>
      <name>Yokohama</name>
    </location>
    <location name="Wakō::Saitama::Japan">
      <cdi>2.2372</cdi>
      <nresp>1</nresp>
      <dist>640</dist>
      <lat>35.78</lat>
      <lon>139.61</lon>
      <name>Wakō</name>
    </location>
    <location name="Kokubunji::Tokio::Japan">
      <cdi>2.6912</cdi>
      <nresp>1</nresp>
      <dist>639</dist>
      <lat>35.70</lat>
      <lon>139.48</lon>
      <name>Kokubunji</name>
    </location>
    <location name="Tokyo::Tokio::Japan">
      <cdi>2</cdi>
      <nresp>3</nresp>
      <dist>622</dist>
      <lat>35.67</lat>
      <lon>139.77</lon>
      <name>Tokyo</name>
    </location>
  </cdi>
</cdidata>
