<cdidata>
  <cdi type="city">
    <location name="Serajgonj::Sirājganj::Bangladesh">
      <cdi>1</cdi>
      <nresp>1</nresp>
      <dist>583</dist>
      <lat>24.46</lat>
      <lon>89.70</lon>
      <name>Serajgonj</name>
    </location>
    <location name="Chakia::Bihar::India">
      <cdi>2</cdi>
      <nresp>1</nresp>
      <dist>135</dist>
      <lat>26.42</lat>
      <lon>85.05</lon>
      <name>Chakia</name>
    </location>
    <location name="Lakhnau::Uttar Pradesh::India">
      <cdi>2</cdi>
      <nresp>1</nresp>
      <dist>418</dist>
      <lat>26.85</lat>
      <lon>80.92</lon>
      <name>Lakhnau</name>
    </location>
    <location name="Pilkhuwa::Uttar Pradesh::India">
      <cdi>2</cdi>
      <nresp>1</nresp>
      <dist>737</dist>
      <lat>28.72</lat>
      <lon>77.65</lon>
      <name>Pilkhuwa</name>
    </location>
    <location name="Kalaiyā::Bara::Nepal">
      <cdi>4.3417</cdi>
      <nresp>1</nresp>
      <dist>68</dist>
      <lat>27.03</lat>
      <lon>85.00</lon>
      <name>Kalaiyā</name>
    </location>
    <location name="Bharatpur::Chitwan::Nepal">
      <cdi>2.0372</cdi>
      <nresp>1</nresp>
      <dist>61</dist>
      <lat>27.67</lat>
      <lon>84.44</lon>
      <name>Bharatpur</name>
    </location>
    <location name="Tribuvannagar::Dang Deokhuri::Nepal">
      <cdi>3.4498</cdi>
      <nresp>2</nresp>
      <dist>33</dist>
      <lat>27.72</lat>
      <lon>85.37</lon>
      <name>Tribuvannagar</name>
    </location>
    <location name="Kathmandu::Kathmandu::Nepal">
      <cdi>3.6644</cdi>
      <nresp>19</nresp>
      <dist>28</dist>
      <lat>27.71</lat>
      <lon>85.31</lon>
      <name>Kathmandu</name>
    </location>
    <location name="Kirtipur::Kathmandu::Nepal">
      <cdi>5.7491</cdi>
      <nresp>3</nresp>
      <dist>24</dist>
      <lat>27.67</lat>
      <lon>85.28</lon>
      <name>Kirtipur</name>
    </location>
    <location name="Lalitpur::Lalitpur::Nepal">
      <cdi>4.9287</cdi>
      <nresp>7</nresp>
      <dist>28</dist>
      <lat>27.68</lat>
      <lon>85.32</lon>
      <name>Lalitpur</name>
    </location>
    <location name="Bidur::Nuwakot::Nepal">
      <cdi>3.4498</cdi>
      <nresp>1</nresp>
      <dist>31</dist>
      <lat>27.89</lat>
      <lon>85.16</lon>
      <name>Bidur</name>
    </location>
    <location name="Siddharthanagar::Rupandehi::Nepal">
      <cdi>3.4498</cdi>
      <nresp>1</nresp>
      <dist>159</dist>
      <lat>27.50</lat>
      <lon>83.45</lon>
      <name>Siddharthanagar</name>
    </location>
  </cdi>
</cdidata>
