<cdidata>
  <cdi type="city">
    <location name="Madhyamgram::Bangla::India">
      <cdi>2.5168</cdi>
      <nresp>1</nresp>
      <dist>631</dist>
      <lat>22.70</lat>
      <lon>88.45</lon>
      <name>Madhyamgram</name>
    </location>
    <location name="Shilīguri::Bangla::India">
      <cdi>2</cdi>
      <nresp>5</nresp>
      <dist>280</dist>
      <lat>26.73</lat>
      <lon>88.42</lon>
      <name>Shilīguri</name>
    </location>
    <location name="Behar::Bihar::India">
      <cdi>2</cdi>
      <nresp>1</nresp>
      <dist>301</dist>
      <lat>25.21</lat>
      <lon>85.52</lon>
      <name>Behar</name>
    </location>
    <location name="Gurgaon::Haryana::India">
      <cdi>2.0372</cdi>
      <nresp>1</nresp>
      <dist>876</dist>
      <lat>28.47</lat>
      <lon>77.01</lon>
      <name>Gurgaon</name>
    </location>
    <location name="Lakhnau::Uttar Pradesh::India">
      <cdi>2.6912</cdi>
      <nresp>1</nresp>
      <dist>507</dist>
      <lat>26.85</lat>
      <lon>80.92</lon>
      <name>Lakhnau</name>
    </location>
    <location name="Bhaktapur::Bhaktapur::Nepal">
      <cdi>3.0916</cdi>
      <nresp>2</nresp>
      <dist>55</dist>
      <lat>27.67</lat>
      <lon>85.43</lon>
      <name>Bhaktapur</name>
    </location>
    <location name="Kirtipur::Kathmandu::Nepal">
      <cdi>2</cdi>
      <nresp>1</nresp>
      <dist>68</dist>
      <lat>27.67</lat>
      <lon>85.28</lon>
      <name>Kirtipur</name>
    </location>
  </cdi>
</cdidata>
