<cdidata>
  <cdi type="zip">
    <location name="67208">
      <cdi>2.2372</cdi>
      <nresp>1</nresp>
      <dist>158</dist>
      <lat>37.7046283725</lat>
      <lon>-97.2805432325</lon>
      <name>Wichita</name>
      <state>KS</state>
    </location>
    <location name="73044">
      <cdi>3.0916</cdi>
      <nresp>1</nresp>
      <dist>49</dist>
      <lat>35.8555874545</lat>
      <lon>-97.4533252066</lon>
      <name>Guthrie</name>
      <state>OK</state>
    </location>
    <location name="73701">
      <cdi>2</cdi>
      <nresp>1</nresp>
      <dist>29</dist>
      <lat>36.4049653505</lat>
      <lon>-97.8200653927</lon>
      <name>Enid</name>
      <state>OK</state>
    </location>
    <location name="73730">
      <cdi>3.9980</cdi>
      <nresp>2</nresp>
      <dist>6</dist>
      <lat>36.2974050991</lat>
      <lon>-97.543857753</lon>
      <name>Covington</name>
      <state>OK</state>
    </location>
    <location name="74023">
      <cdi>2</cdi>
      <nresp>1</nresp>
      <dist>78</dist>
      <lat>35.9970321702</lat>
      <lon>-96.737107477</lon>
      <name>Cushing</name>
      <state>OK</state>
    </location>
    <location name="74601">
      <cdi>2</cdi>
      <nresp>1</nresp>
      <dist>58</dist>
      <lat>36.7162740821</lat>
      <lon>-97.1471619885</lon>
      <name>Ponca City</name>
      <state>OK</state>
    </location>
  </cdi>
</cdidata>
