<cdidata>
  <cdi type="city">
    <location name="Río Segundo::Alajuela::Costa Rica">
      <cdi>3.0916</cdi>
      <nresp>1</nresp>
      <dist>38</dist>
      <lat>10.23</lat>
      <lon>-84.30</lon>
      <name>Río Segundo</name>
    </location>
    <location name="Asunción::Heredia::Costa Rica">
      <cdi>2.2372</cdi>
      <nresp>1</nresp>
      <dist>32</dist>
      <lat>9.98</lat>
      <lon>-84.17</lon>
      <name>Asunción</name>
    </location>
    <location name="Heredia::Heredia::Costa Rica">
      <cdi>3.4498</cdi>
      <nresp>1</nresp>
      <dist>27</dist>
      <lat>10.00</lat>
      <lon>-84.12</lon>
      <name>Heredia</name>
    </location>
    <location name="San Josecito::Heredia::Costa Rica">
      <cdi>4.3417</cdi>
      <nresp>1</nresp>
      <dist>25</dist>
      <lat>10.02</lat>
      <lon>-84.10</lon>
      <name>San Josecito</name>
    </location>
    <location name="Desamparados::San José::Costa Rica">
      <cdi>3.9249</cdi>
      <nresp>1</nresp>
      <dist>35</dist>
      <lat>9.90</lat>
      <lon>-84.12</lon>
      <name>Desamparados</name>
    </location>
    <location name="Escazú::San José::Costa Rica">
      <cdi>3.9249</cdi>
      <nresp>3</nresp>
      <dist>35</dist>
      <lat>9.92</lat>
      <lon>-84.15</lon>
      <name>Escazú</name>
    </location>
    <location name="Granadilla::San José::Costa Rica">
      <cdi>2.6912</cdi>
      <nresp>1</nresp>
      <dist>29</dist>
      <lat>9.93</lat>
      <lon>-84.02</lon>
      <name>Granadilla</name>
    </location>
    <location name="Sabanilla::San José::Costa Rica">
      <cdi>2</cdi>
      <nresp>1</nresp>
      <dist>28</dist>
      <lat>9.95</lat>
      <lon>-84.03</lon>
      <name>Sabanilla</name>
    </location>
    <location name="San Isidro (San Isidro de Coronado)::San José::Costa Rica">
      <cdi>4.5936</cdi>
      <nresp>1</nresp>
      <dist>23</dist>
      <lat>10.02</lat>
      <lon>-84.06</lon>
      <name>San Isidro (San Isidro de Coronado)</name>
    </location>
    <location name="San Isidro (San Isidro de El General)::San José::Costa Rica">
      <cdi>2</cdi>
      <nresp>1</nresp>
      <dist>93</dist>
      <lat>9.37</lat>
      <lon>-83.71</lon>
      <name>San Isidro (San Isidro de El General)</name>
    </location>
    <location name="San José::San José::Costa Rica">
      <cdi>3.3443</cdi>
      <nresp>9</nresp>
      <dist>31</dist>
      <lat>9.93</lat>
      <lon>-84.08</lon>
      <name>San José</name>
    </location>
    <location name="San Juan (San Juan de Tibás)::San José::Costa Rica">
      <cdi>3.6156</cdi>
      <nresp>2</nresp>
      <dist>28</dist>
      <lat>9.96</lat>
      <lon>-84.08</lon>
      <name>San Juan (San Juan de Tibás)</name>
    </location>
    <location name="San Marcos de Tarrazú::San José::Costa Rica">
      <cdi>3.4498</cdi>
      <nresp>1</nresp>
      <dist>58</dist>
      <lat>9.65</lat>
      <lon>-84.02</lon>
      <name>San Marcos de Tarrazú</name>
    </location>
    <location name="San Pedro::San José::Costa Rica">
      <cdi>2.6912</cdi>
      <nresp>1</nresp>
      <dist>30</dist>
      <lat>9.93</lat>
      <lon>-84.05</lon>
      <name>San Pedro</name>
    </location>
    <location name="San Rafael::San José::Costa Rica">
      <cdi>4.3417</cdi>
      <nresp>2</nresp>
      <dist>33</dist>
      <lat>9.93</lat>
      <lon>-84.13</lon>
      <name>San Rafael</name>
    </location>
    <location name="San Vicente::San José::Costa Rica">
      <cdi>2</cdi>
      <nresp>1</nresp>
      <dist>26</dist>
      <lat>9.97</lat>
      <lon>-84.05</lon>
      <name>San Vicente</name>
    </location>
    <location name="Santa Ana::San José::Costa Rica">
      <cdi>3.4498</cdi>
      <nresp>3</nresp>
      <dist>35</dist>
      <lat>9.94</lat>
      <lon>-84.18</lon>
      <name>Santa Ana</name>
    </location>
  </cdi>
</cdidata>
