<cdidata>
  <cdi type="city">
    <location name="Lakhnau::Uttar Pradesh::India">
      <cdi>2</cdi>
      <nresp>1</nresp>
      <dist>408</dist>
      <lat>26.85</lat>
      <lon>80.92</lon>
      <name>Lakhnau</name>
    </location>
    <location name="Kalaiy훮::Bara::Nepal">
      <cdi>3.7738</cdi>
      <nresp>1</nresp>
      <dist>75</dist>
      <lat>27.03</lat>
      <lon>85.00</lon>
      <name>Kalaiy훮</name>
    </location>
    <location name="Bhaktapur::Bhaktapur::Nepal">
      <cdi>3.9249</cdi>
      <nresp>2</nresp>
      <dist>50</dist>
      <lat>27.67</lat>
      <lon>85.43</lon>
      <name>Bhaktapur</name>
    </location>
    <location name="Tribuvannagar::Dang Deokhuri::Nepal">
      <cdi>4.1118</cdi>
      <nresp>6</nresp>
      <dist>44</dist>
      <lat>27.72</lat>
      <lon>85.37</lon>
      <name>Tribuvannagar</name>
    </location>
    <location name="Pokhar훮::Kaski::Nepal">
      <cdi>2.2372</cdi>
      <nresp>2</nresp>
      <dist>109</dist>
      <lat>28.22</lat>
      <lon>83.99</lon>
      <name>Pokhar훮</name>
    </location>
    <location name="Kathmandu::Kathmandu::Nepal">
      <cdi>3.4811</cdi>
      <nresp>14</nresp>
      <dist>38</dist>
      <lat>27.71</lat>
      <lon>85.31</lon>
      <name>Kathmandu</name>
    </location>
    <location name="Kirtipur::Kathmandu::Nepal">
      <cdi>4.0348</cdi>
      <nresp>9</nresp>
      <dist>35</dist>
      <lat>27.67</lat>
      <lon>85.28</lon>
      <name>Kirtipur</name>
    </location>
    <location name="Lalitpur::Lalitpur::Nepal">
      <cdi>3.2091</cdi>
      <nresp>4</nresp>
      <dist>39</dist>
      <lat>27.68</lat>
      <lon>85.32</lon>
      <name>Lalitpur</name>
    </location>
    <location name="Hetauda::Makwanpur::Nepal">
      <cdi>3.0916</cdi>
      <nresp>1</nresp>
      <dist>34</dist>
      <lat>27.41</lat>
      <lon>85.02</lon>
      <name>Hetauda</name>
    </location>
    <location name="Bidur::Nuwakot::Nepal">
      <cdi>2.8973</cdi>
      <nresp>2</nresp>
      <dist>32</dist>
      <lat>27.89</lat>
      <lon>85.16</lon>
      <name>Bidur</name>
    </location>
  </cdi>
</cdidata>
