<cdidata>
  <cdi type="city">
    <location name="Chaguanas::Chaguanas::Trinidad and Tobago">
      <cdi>2.6912</cdi>
      <nresp>1</nresp>
      <dist>176</dist>
      <lat>10.52</lat>
      <lon>-61.43</lon>
      <name>Chaguanas</name>
    </location>
    <location name="Couva::Couva-Tabaquite-Talparo::Trinidad and Tobago">
      <cdi>2.2372</cdi>
      <nresp>1</nresp>
      <dist>180</dist>
      <lat>10.42</lat>
      <lon>-61.44</lon>
      <name>Couva</name>
    </location>
    <location name="Mucurapo::Diego Martín::Trinidad and Tobago">
      <cdi>3.5748</cdi>
      <nresp>9</nresp>
      <dist>163</dist>
      <lat>10.67</lat>
      <lon>-61.54</lon>
      <name>Mucurapo</name>
    </location>
    <location name="Peñal::Peñal Débé::Trinidad and Tobago">
      <cdi>2</cdi>
      <nresp>1</nresp>
      <dist>193</dist>
      <lat>10.17</lat>
      <lon>-61.46</lon>
      <name>Peñal</name>
    </location>
    <location name="Port of Spain::Port of Spain::Trinidad and Tobago">
      <cdi>2.5168</cdi>
      <nresp>4</nresp>
      <dist>165</dist>
      <lat>10.66</lat>
      <lon>-61.51</lon>
      <name>Port of Spain</name>
    </location>
    <location name="Arouca::Tunapuna-Piarco::Trinidad and Tobago">
      <cdi>3.0916</cdi>
      <nresp>1</nresp>
      <dist>179</dist>
      <lat>10.65</lat>
      <lon>-61.33</lon>
      <name>Arouca</name>
    </location>
    <location name="Tacarigua::Tunapuna-Piarco::Trinidad and Tobago">
      <cdi>2</cdi>
      <nresp>1</nresp>
      <dist>177</dist>
      <lat>10.65</lat>
      <lon>-61.35</lon>
      <name>Tacarigua</name>
    </location>
    <location name="Tunapuna::Tunapuna-Piarco::Trinidad and Tobago">
      <cdi>2</cdi>
      <nresp>3</nresp>
      <dist>174</dist>
      <lat>10.65</lat>
      <lon>-61.39</lon>
      <name>Tunapuna</name>
    </location>
    <location name="Ciudad Guayana::Bolívar::Venezuela">
      <cdi>3.4498</cdi>
      <nresp>4</nresp>
      <dist>329</dist>
      <lat>8.37</lat>
      <lon>-62.62</lon>
      <name>Ciudad Guayana</name>
    </location>
    <location name="Blackmans::Saint John::Barbados">
      <cdi>2.0372</cdi>
      <nresp>1</nresp>
      <dist>407</dist>
      <lat>13.19</lat>
      <lon>-59.54</lon>
      <name>Blackmans</name>
    </location>
  </cdi>
</cdidata>
