<cdidata>
  <cdi type="zip">
    <location name="74023">
      <cdi>2</cdi>
      <nresp>1</nresp>
      <dist>40</dist>
      <lat>35.9970321702</lat>
      <lon>-96.737107477</lon>
      <name>Cushing</name>
      <state>OK</state>
    </location>
    <location name="74039">
      <cdi>2</cdi>
      <nresp>1</nresp>
      <dist>72</dist>
      <lat>35.8975629435</lat>
      <lon>-96.2394512563</lon>
      <name>Kellyville</name>
      <state>OK</state>
    </location>
    <location name="74058">
      <cdi>4.2084</cdi>
      <nresp>5</nresp>
      <dist>5</dist>
      <lat>36.3447277149</lat>
      <lon>-96.8058296537</lon>
      <name>Pawnee</name>
      <state>OK</state>
    </location>
    <location name="74127">
      <cdi>3.0916</cdi>
      <nresp>1</nresp>
      <dist>72</dist>
      <lat>36.1716076469</lat>
      <lon>-96.045630502</lon>
      <name>Tulsa</name>
      <state>OK</state>
    </location>
    <location name="74436">
      <cdi>2.6912</cdi>
      <nresp>1</nresp>
      <dist>118</dist>
      <lat>35.7912228584</lat>
      <lon>-95.7083072245</lon>
      <name>Haskell</name>
      <state>OK</state>
    </location>
  </cdi>
</cdidata>
