<cdidata>
  <cdi type="zip">
    <location name="67003">
      <cdi>2.6912</cdi>
      <nresp>1</nresp>
      <dist>17</dist>
      <lat>37.1119636592</lat>
      <lon>-98.0346209163</lon>
      <name>Anthony</name>
      <state>KS</state>
    </location>
    <location name="67018">
      <cdi>3.0916</cdi>
      <nresp>1</nresp>
      <dist>15</dist>
      <lat>37.07206096</lat>
      <lon>-97.8801688898</lon>
      <name>Bluff City</name>
      <state>KS</state>
    </location>
    <location name="67036">
      <cdi>2</cdi>
      <nresp>1</nresp>
      <dist>10</dist>
      <lat>37.2575310238</lat>
      <lon>-97.8672725658</lon>
      <name>Danville</name>
      <state>KS</state>
    </location>
    <location name="67058">
      <cdi>2</cdi>
      <nresp>1</nresp>
      <dist>17</dist>
      <lat>37.3066539451</lat>
      <lon>-98.0003593977</lon>
      <name>Harper</name>
      <state>KS</state>
    </location>
    <location name="74075">
      <cdi>2.8973</cdi>
      <nresp>2</nresp>
      <dist>135</dist>
      <lat>36.175402583</lat>
      <lon>-97.0633810292</lon>
      <name>Stillwater</name>
      <state>OK</state>
    </location>
  </cdi>
</cdidata>
