<cdidata>
  <cdi type="zip">
    <location name="73162">
      <cdi>1</cdi>
      <nresp>1</nresp>
      <dist>108</dist>
      <lat>35.5808656078</lat>
      <lon>-97.6415225426</lon>
      <name>Oklahoma City</name>
      <state>OK</state>
    </location>
    <location name="74020">
      <cdi>2.2372</cdi>
      <nresp>1</nresp>
      <dist>31</dist>
      <lat>36.2409919596</lat>
      <lon>-96.4652056739</lon>
      <name>Cleveland</name>
      <state>OK</state>
    </location>
    <location name="74032">
      <cdi>2</cdi>
      <nresp>1</nresp>
      <dist>13</dist>
      <lat>36.2090916512</lat>
      <lon>-96.9126312998</lon>
      <name>Glencoe</name>
      <state>OK</state>
    </location>
    <location name="74058">
      <cdi>3.6249</cdi>
      <nresp>7</nresp>
      <dist>7</dist>
      <lat>36.3447277149</lat>
      <lon>-96.8058296537</lon>
      <name>Pawnee</name>
      <state>OK</state>
    </location>
    <location name="74075">
      <cdi>2</cdi>
      <nresp>1</nresp>
      <dist>26</dist>
      <lat>36.175402583</lat>
      <lon>-97.0633810292</lon>
      <name>Stillwater</name>
      <state>OK</state>
    </location>
    <location name="74604">
      <cdi>2</cdi>
      <nresp>1</nresp>
      <dist>46</dist>
      <lat>36.6894344421</lat>
      <lon>-96.9613505909</lon>
      <name>Ponca City</name>
      <state>OK</state>
    </location>
  </cdi>
</cdidata>
