<cdidata>
  <cdi type="zip">
    <location name="73007">
      <cdi>4.2623</cdi>
      <nresp>5</nresp>
      <dist>9</dist>
      <lat>35.685166984</lat>
      <lon>-97.3241441</lon>
      <name>Arcadia</name>
      <state>OK</state>
    </location>
    <location name="73013">
      <cdi>2.2372</cdi>
      <nresp>1</nresp>
      <dist>20</dist>
      <lat>35.6220704839</lat>
      <lon>-97.4858455914</lon>
      <name>Edmond</name>
      <state>OK</state>
    </location>
    <location name="73020">
      <cdi>3.0916</cdi>
      <nresp>2</nresp>
      <dist>20</dist>
      <lat>35.456075286</lat>
      <lon>-97.2632650514</lon>
      <name>Choctaw</name>
      <state>OK</state>
    </location>
    <location name="73034">
      <cdi>2.6912</cdi>
      <nresp>1</nresp>
      <dist>16</dist>
      <lat>35.7023169435</lat>
      <lon>-97.4284925058</lon>
      <name>Edmond</name>
      <state>OK</state>
    </location>
    <location name="73049">
      <cdi>4.2084</cdi>
      <nresp>2</nresp>
      <dist>8</dist>
      <lat>35.5848257111</lat>
      <lon>-97.2955576644</lon>
      <name>Jones</name>
      <state>OK</state>
    </location>
    <location name="73131">
      <cdi>1</cdi>
      <nresp>1</nresp>
      <dist>19</dist>
      <lat>35.5750702853</lat>
      <lon>-97.4624606899</lon>
      <name>Oklahoma City</name>
      <state>OK</state>
    </location>
    <location name="73132">
      <cdi>2.2372</cdi>
      <nresp>1</nresp>
      <dist>34</dist>
      <lat>35.5513031039</lat>
      <lon>-97.6345444976</lon>
      <name>Oklahoma City</name>
      <state>OK</state>
    </location>
    <location name="74074">
      <cdi>2</cdi>
      <nresp>1</nresp>
      <dist>51</dist>
      <lat>36.0759277283</lat>
      <lon>-97.0995974939</lon>
      <name>Stillwater</name>
      <state>OK</state>
    </location>
    <location name="74137">
      <cdi>1</cdi>
      <nresp>1</nresp>
      <dist>128</dist>
      <lat>36.0208833454</lat>
      <lon>-95.92912403</lon>
      <name>Tulsa</name>
      <state>OK</state>
    </location>
    <location name="74851">
      <cdi>2.2372</cdi>
      <nresp>1</nresp>
      <dist>31</dist>
      <lat>35.4031104746</lat>
      <lon>-97.0926965117</lon>
      <name>McLoud</name>
      <state>OK</state>
    </location>
    <location name="74857">
      <cdi>4.2084</cdi>
      <nresp>1</nresp>
      <dist>33</dist>
      <lat>35.3419691675</lat>
      <lon>-97.1962017041</lon>
      <name>Newalla</name>
      <state>OK</state>
    </location>
  </cdi>
</cdidata>
