<cdidata>
  <cdi type="city">
    <location name="Chiba::Chiba::Japan">
      <cdi>2.6912</cdi>
      <nresp>1</nresp>
      <dist>74</dist>
      <lat>35.61</lat>
      <lon>140.11</lon>
      <name>Chiba</name>
    </location>
    <location name="Narita::Chiba::Japan">
      <cdi>3.2152</cdi>
      <nresp>3</nresp>
      <dist>63</dist>
      <lat>35.79</lat>
      <lon>140.32</lon>
      <name>Narita</name>
    </location>
    <location name="Ōamishirasato::Chiba::Japan">
      <cdi>2.2372</cdi>
      <nresp>1</nresp>
      <dist>63</dist>
      <lat>35.52</lat>
      <lon>140.31</lon>
      <name>Ōamishirasato</name>
    </location>
    <location name="Tsuchiura::Ibaraki::Japan">
      <cdi>2.2372</cdi>
      <nresp>1</nresp>
      <dist>84</dist>
      <lat>36.09</lat>
      <lon>140.19</lon>
      <name>Tsuchiura</name>
    </location>
    <location name="Musashino::Tokio::Japan">
      <cdi>2</cdi>
      <nresp>1</nresp>
      <dist>115</dist>
      <lat>35.71</lat>
      <lon>139.58</lon>
      <name>Musashino</name>
    </location>
    <location name="Tokyo::Tokio::Japan">
      <cdi>2</cdi>
      <nresp>2</nresp>
      <dist>99</dist>
      <lat>35.67</lat>
      <lon>139.77</lon>
      <name>Tokyo</name>
    </location>
  </cdi>
</cdidata>
