<cdidata>
  <cdi type="zip">
    <location name="98274">
      <cdi>2.2372</cdi>
      <nresp>1</nresp>
      <dist>267</dist>
      <lat>48.3421412647</lat>
      <lon>-122.180029298</lon>
      <name>Mount Vernon</name>
      <state>WA</state>
    </location>
    <location name="98603">
      <cdi>3.4498</cdi>
      <nresp>1</nresp>
      <dist>20</dist>
      <lat>46.026314085</lat>
      <lon>-122.45438157</lon>
      <name>Ariel</name>
      <state>WA</state>
    </location>
    <location name="98604">
      <cdi>2.2372</cdi>
      <nresp>1</nresp>
      <dist>24</dist>
      <lat>45.7955979567</lat>
      <lon>-122.499105288</lon>
      <name>Battle Ground</name>
      <state>WA</state>
    </location>
    <location name="98629">
      <cdi>2.6912</cdi>
      <nresp>5</nresp>
      <dist>16</dist>
      <lat>45.8803912932</lat>
      <lon>-122.611961562</lon>
      <name>La Center</name>
      <state>WA</state>
    </location>
    <location name="98662">
      <cdi>2.6912</cdi>
      <nresp>1</nresp>
      <dist>32</dist>
      <lat>45.6903989751</lat>
      <lon>-122.578567493</lon>
      <name>Vancouver</name>
      <state>WA</state>
    </location>
    <location name="98674">
      <cdi>2.3565</cdi>
      <nresp>4</nresp>
      <dist>15</dist>
      <lat>45.9473173613</lat>
      <lon>-122.6557392</lon>
      <name>Woodland</name>
      <state>WA</state>
    </location>
  </cdi>
</cdidata>
